% Cloudiness,Latitude,Longitude,Date (Raw),% Humidity,Max. Temp. (K),Max. Temp. (F),City,Date (Polished),Country,Wind Speed (MPH),Wind Speed (M/s)
64.0,-18.65,-173.98,1554114493.0,100.0,300.188,1063.74,Neiafu,2019-04-01 10:28:13,TO,16.13,7.21
75.0,-33.93,18.42,1554114366.0,48.0,292.59,1065.45,Cape Town,2019-04-01 10:26:06,ZA,13.44,6.7
36.0,-9.8,-139.03,1554114499.0,99.0,301.138,1047.07,Atuona,2019-04-01 10:28:19,PF,4.0,6.01
12.0,35.2,26.25,1554114127.0,42.0,290.93,1049.27,Palaikastron,2019-04-01 10:22:07,GR,13.87,4.47
88.0,-34.42,19.24,1554113781.0,54.0,290.93,1015.07,Hermanus,2019-04-01 10:16:21,ZA,27.51,1.79
48.0,-34.53,20.04,1554113753.0,42.0,292.15,1036.67,Bredasdorp,2019-04-01 10:15:53,ZA,5.82,6.2
90.0,69.47,25.52,1554112200.0,78.0,273.15,1033.07,Karasjok,2019-04-01 09:50:00,NO,6.93,12.3
40.0,-42.88,147.33,1554114255.0,66.0,285.15,1026.07,Hobart,2019-04-01 10:24:15,AU,11.41,2.6
75.0,-53.16,-70.91,1554114146.0,93.0,283.15,1047.47,Punta Arenas,2019-04-01 10:22:26,CL,16.11,3.1
75.0,63.83,10.7,1554114317.0,80.0,279.26,1055.46,Hovd,2019-04-01 10:25:17,NO,5.73,5.1
75.0,24.8,125.28,1554112800.0,63.0,291.15,1059.33,Hirara,2019-04-01 10:00:00,JP,8.63,7.2
0.0,-23.58,149.07,1554114513.0,41.0,295.588,998.04,Bluff,2019-04-01 10:28:33,AU,8.63,2.56
0.0,25.52,90.21,1554114514.0,73.0,297.738,1036.67,Tura,2019-04-01 10:28:34,IN,5.82,3.86
64.0,61.13,149.63,1554114516.0,73.0,263.688,1040.27,Ust-Omchug,2019-04-01 10:28:36,RU,9.17,3.86
40.0,-42.78,147.06,1554114495.0,66.0,285.15,1014.06,New Norfolk,2019-04-01 10:28:15,AU,16.11,2.6
40.0,38.52,-28.7,1554112800.0,76.0,287.15,1046.01,Ribeira Grande,2019-04-01 10:00:00,PT,13.56,4.1
92.0,33.64,42.83,1554114521.0,98.0,287.238,1067.27,Hit,2019-04-01 10:28:41,IQ,5.82,6.36
75.0,39.62,-77.74,1554114523.0,54.0,272.59,1067.07,Vardo,2019-04-01 10:28:43,US,13.67,7.2
0.0,31.45,12.98,1554114526.0,85.0,290.338,1052.08,Mizdah,2019-04-01 10:28:46,LY,10.0,6.06
24.0,-15.77,128.74,1554111000.0,37.0,302.15,1015.07,Kununurra,2019-04-01 09:30:00,AU,6.93,2.6
80.0,3.07,172.79,1554114529.0,99.0,302.038,1066.26,Butaritari,2019-04-01 10:28:49,KI,8.97,6.11
75.0,63.84,-22.43,1554112800.0,100.0,273.15,1076.27,Grindavik,2019-04-01 10:00:00,IS,5.82,0.5
0.0,-33.59,26.89,1554114350.0,65.0,293.71,1034.87,Port Alfred,2019-04-01 10:25:50,ZA,2.24,4.47
75.0,42.65,-73.75,1554114241.0,68.0,273.15,999.03,Albany,2019-04-01 10:24:01,US,5.39,3.1
24.0,31.27,56.81,1554114535.0,21.0,301.588,1050.69,Ravar,2019-04-01 10:28:55,IR,2.71,4.01
20.0,12.2,79.95,1554109200.0,52.0,307.15,1045.2,Marakkanam,2019-04-01 09:00:00,IN,5.06,2.6
90.0,-51.62,-69.22,1554112800.0,87.0,284.15,1069.14,Rio Gallegos,2019-04-01 10:00:00,AR,9.98,1.0
36.0,48.76,-91.62,1554114539.0,80.0,264.238,1072.56,Atikokan,2019-04-01 10:28:59,CA,14.67,2.41
68.0,9.01,37.45,1554114541.0,79.0,292.938,1063.67,Gedo,2019-04-01 10:29:01,ET,3.36,1.21
0.0,-33.21,138.6,1554114543.0,56.0,289.888,1066.44,Jamestown,2019-04-01 10:29:03,AU,4.05,2.26
32.0,16.29,119.81,1554114544.0,76.0,303.188,1069.07,Catuday,2019-04-01 10:29:04,PH,5.82,4.46
0.0,12.35,32.18,1554114546.0,18.0,305.088,1064.46,Marabba,2019-04-01 10:29:06,SD,0.81,6.56
90.0,-13.85,136.42,1554109200.0,78.0,300.15,1028.46,Alyangula,2019-04-01 09:00:00,AU,0.92,1.5
36.0,-0.6,73.08,1554114549.0,100.0,301.688,1029.47,Hithadhoo,2019-04-01 10:29:09,MV,24.61,1.81
20.0,-20.21,57.76,1554114542.0,66.0,303.15,1078.14,Quatre Cocos,2019-04-01 10:29:02,MU,8.75,2.6
0.0,22.57,59.53,1554114552.0,79.0,300.588,1016.08,Sur,2019-04-01 10:29:12,OM,13.87,0.36
92.0,-54.81,-68.31,1554114516.0,100.0,280.588,1011.09,Ushuaia,2019-04-01 10:28:36,AR,12.21,0.41
40.0,53.14,59.15,1554111000.0,61.0,281.15,1054.08,Svetlogorsk,2019-04-01 09:30:00,RU,16.91,11.0
12.0,25.05,61.74,1554114556.0,40.0,308.188,1007.08,Jiwani,2019-04-01 10:29:16,PK,17.22,3.91
1.0,39.31,-74.98,1554114553.0,46.0,273.71,1056.47,Port Elizabeth,2019-04-01 10:29:13,US,3.6,6.2
8.0,71.97,114.09,1554114559.0,89.0,270.938,1044.21,Saskylakh,2019-04-01 10:29:19,RU,20.49,5.46
92.0,-33.64,115.35,1554114496.0,43.0,294.82,1049.27,Busselton,2019-04-01 10:28:16,AU,26.4,7.56
1.0,45.36,-73.48,1554114537.0,62.0,268.71,1054.67,Saint-Philippe,2019-04-01 10:28:57,CA,4.7,7.7
0.0,-22.97,-42.02,1554112800.0,78.0,296.15,1034.08,Arraial do Cabo,2019-04-01 10:00:00,BR,5.01,1.61
0.0,-34.0,24.73,1554114565.0,71.0,289.338,1067.27,Kruisfontein,2019-04-01 10:29:25,ZA,8.05,9.16
40.0,-33.02,27.91,1554112800.0,63.0,292.15,992.19,East London,2019-04-01 10:00:00,ZA,5.06,11.8
20.0,6.8,-58.16,1554109200.0,94.0,295.15,1076.27,Georgetown,2019-04-01 09:00:00,GY,9.17,2.1
92.0,-46.19,168.86,1554114006.0,74.0,283.71,1074.81,Mataura,2019-04-01 10:20:06,NZ,4.38,2.24
75.0,5.28,115.24,1554111000.0,66.0,302.15,1054.67,Victoria,2019-04-01 09:30:00,BN,3.36,3.6
36.0,68.75,161.3,1554114573.0,71.0,260.438,1026.03,Cherskiy,2019-04-01 10:29:33,RU,4.94,2.26
0.0,13.77,-13.67,1554112800.0,44.0,307.15,1020.72,Tambacounda,2019-04-01 10:00:00,SN,10.42,4.1
0.0,14.07,98.19,1554114576.0,41.0,306.338,1079.31,Dawei,2019-04-01 10:29:36,MM,6.4,1.96
75.0,19.71,-155.08,1554114568.0,94.0,295.15,1068.06,Hilo,2019-04-01 10:29:28,US,3.15,1.5
80.0,-45.41,167.72,1554114579.0,79.0,279.238,1043.08,Te Anau,2019-04-01 10:29:39,NZ,11.41,2.21
92.0,60.06,69.92,1554114580.0,81.0,276.288,1011.07,Gornopravdinsk,2019-04-01 10:29:40,RU,3.36,4.66
0.0,8.58,81.23,1554114582.0,51.0,308.838,993.47,Trincomalee,2019-04-01 10:29:42,LK,25.28,2.86
8.0,-16.48,-151.75,1554114583.0,99.0,302.588,1010.73,Faanui,2019-04-01 10:29:43,PF,2.71,1.41
0.0,44.83,-0.61,1554114049.0,62.0,288.71,1040.27,Saint-Augustin,2019-04-01 10:20:49,FR,13.87,5.1
40.0,47.91,-97.06,1554113779.0,92.0,270.93,1004.27,Grand Forks,2019-04-01 10:16:19,US,10.29,1.5
20.0,68.82,-51.19,1554112200.0,60.0,261.15,1025.49,Qasigiannguit,2019-04-01 09:50:00,GL,17.25,11.3
44.0,58.61,125.39,1554114340.0,60.0,270.738,1079.87,Aldan,2019-04-01 10:25:40,RU,6.93,1.21
0.0,42.05,59.39,1554111000.0,26.0,287.15,1025.87,Akdepe,2019-04-01 09:30:00,TM,5.82,6.2
8.0,65.61,-37.64,1554112200.0,73.0,267.15,1065.47,Tasiilaq,2019-04-01 09:50:00,GL,11.41,4.6
0.0,55.9,27.16,1554114593.0,61.0,278.938,1059.79,Kraslava,2019-04-01 10:29:53,LV,12.19,7.71
40.0,15.34,74.49,1554109200.0,19.0,309.15,1034.08,Vaini,2019-04-01 09:00:00,IN,5.01,3.1
90.0,47.66,-52.73,1554114515.0,93.0,279.15,1006.07,Torbay,2019-04-01 10:28:35,CA,19.46,2.6
36.0,-21.21,-159.78,1554112800.0,88.0,301.15,1065.37,Avarua,2019-04-01 10:00:00,CK,0.27,5.1
76.0,-23.12,-134.97,1554114605.0,100.0,297.997,1065.28,Rikitea,2019-04-01 10:30:05,PF,3.91,5.45
75.0,-3.75,-73.25,1554109200.0,94.0,298.15,1042.07,Iquitos,2019-04-01 09:00:00,PE,17.9,1.0
92.0,-46.13,167.69,1554114006.0,74.0,283.71,983.92,Tuatapere,2019-04-01 10:20:06,NZ,6.04,2.24
90.0,65.28,-126.83,1554112800.0,88.0,273.15,1036.67,Norman Wells,2019-04-01 10:00:00,CA,8.05,5.1
20.0,62.45,-114.38,1554114530.0,67.0,268.15,1060.07,Yellowknife,2019-04-01 10:28:50,CA,9.17,8.7
12.0,15.86,-97.07,1554114615.0,100.0,301.097,985.18,Puerto Escondido,2019-04-01 10:30:15,MX,3.06,0.12
5.0,50.7,-127.42,1554109200.0,85.0,273.15,1047.07,Port Hardy,2019-04-01 09:00:00,CA,9.33,1.0
48.0,5.4,125.46,1554114618.0,97.0,301.047,1031.27,Sarangani,2019-04-01 10:30:18,PH,4.7,1.75
0.0,48.03,40.04,1554111000.0,30.0,288.15,1056.47,Almaznyy,2019-04-01 09:30:00,RU,19.46,8.0
68.0,77.48,-69.36,1554114621.0,90.0,255.847,1058.35,Qaanaaq,2019-04-01 10:30:21,GL,4.14,2.7
0.0,41.28,20.71,1554112800.0,40.0,285.15,1016.41,Poum,2019-04-01 10:00:00,MK,11.68,3.6
20.0,13.22,-59.52,1554109200.0,73.0,298.15,1060.6,Bathsheba,2019-04-01 09:00:00,BB,10.4,4.1
0.0,70.62,147.9,1554114625.0,59.0,256.547,1070.5,Chokurdakh,2019-04-01 10:30:25,RU,9.95,1.37
0.0,32.31,121.18,1554114467.0,31.0,290.93,1056.55,Juegang,2019-04-01 10:27:47,CN,16.44,4.17
75.0,41.01,39.72,1554112200.0,66.0,282.15,1067.08,Trabzon,2019-04-01 09:50:00,TR,8.66,2.1
20.0,14.69,-17.45,1554112800.0,77.0,296.15,1078.07,Dakar,2019-04-01 10:00:00,SN,14.99,8.7
88.0,-3.0,-47.35,1554114632.0,98.0,297.197,1053.85,Paragominas,2019-04-01 10:30:32,BR,9.4,1.85
8.0,62.59,40.61,1554114634.0,91.0,273.897,1020.07,Puksoozero,2019-04-01 10:30:34,RU,4.7,5.22
0.0,21.46,-71.14,1554114635.0,100.0,298.447,1013.07,Cockburn Town,2019-04-01 10:30:35,TC,2.13,4.65
8.0,-20.74,116.85,1554114637.0,36.0,303.947,1035.07,Karratha,2019-04-01 10:30:37,AU,6.93,4.45
0.0,-40.81,-62.99,1554114638.0,63.0,296.197,1063.57,Viedma,2019-04-01 10:30:38,AR,5.59,7.35
20.0,35.51,27.21,1554112200.0,55.0,291.15,1022.27,Karpathos,2019-04-01 09:50:00,GR,21.92,10.3
0.0,21.43,39.83,1554114641.0,16.0,302.047,1048.54,Mecca,2019-04-01 10:30:41,SA,5.14,3.87
0.0,11.28,49.18,1554109200.0,28.0,308.15,1063.39,Bosaso,2019-04-01 09:00:00,SO,2.51,6.7
36.0,-38.31,-60.23,1554114647.0,72.0,294.697,1067.27,Barrow,2019-04-01 10:30:47,AR,13.87,4.2
1.0,50.25,-118.97,1554114648.0,86.0,275.93,1034.87,Lumby,2019-04-01 10:30:48,CA,4.7,2.1
1.0,60.55,-151.26,1554114568.0,86.0,272.04,1024.87,Kenai,2019-04-01 10:29:28,US,7.65,0.95
40.0,45.52,-122.67,1554114545.0,62.0,284.26,1029.47,Portland,2019-04-01 10:29:05,US,21.92,3.1
48.0,0.12,117.47,1554114654.0,100.0,300.097,1057.81,Bontang,2019-04-01 10:30:54,ID,6.53,2.5
88.0,62.16,-7.17,1554112200.0,86.0,277.15,1034.08,Vestmanna,2019-04-01 09:50:00,FO,8.05,9.8
24.0,-12.66,-76.63,1554114657.0,100.0,291.747,1057.09,Mala,2019-04-01 10:30:57,PE,2.28,2.3
44.0,-3.52,23.6,1554114660.0,87.0,299.997,1072.39,Lodja,2019-04-01 10:31:00,CD,3.02,1.12
64.0,73.51,80.55,1554114661.0,98.0,270.347,1007.32,Dikson,2019-04-01 10:31:01,RU,13.65,12.52
0.0,47.59,7.56,1554114625.0,62.0,288.15,1051.07,Saint-Louis,2019-04-01 10:30:25,CH,4.7,1.5
20.0,17.01,54.1,1554112200.0,66.0,302.15,995.35,Salalah,2019-04-01 09:50:00,OM,5.86,6.2
90.0,39.72,45.65,1554114600.0,53.0,284.15,1029.07,Saravan,2019-04-01 10:30:00,AM,19.46,2.1
48.0,56.85,105.25,1554114667.0,66.0,278.597,1054.3,Yantal,2019-04-01 10:31:07,RU,12.46,3.42
75.0,35.03,136.69,1554114461.0,61.0,281.15,1064.02,Fukue,2019-04-01 10:27:41,JP,10.4,9.8
0.0,-30.17,-50.22,1554114670.0,89.0,296.897,1020.47,Cidreira,2019-04-01 10:31:10,BR,8.05,2.92
75.0,53.35,-6.26,1554114215.0,81.0,283.71,1018.67,Dublin,2019-04-01 10:23:35,IE,12.75,3.6
56.0,15.12,108.8,1554114673.0,74.0,296.497,1056.47,Quang Ngai,2019-04-01 10:31:13,VN,23.04,1.02
90.0,36.41,-105.57,1554114659.0,92.0,271.15,1055.56,Taos,2019-04-01 10:30:59,US,2.73,0.5
0.0,-2.95,12.72,1554114676.0,60.0,304.997,1024.06,Mossendjo,2019-04-01 10:31:16,CG,4.52,1.35
32.0,61.99,-49.67,1554114677.0,100.0,268.847,1084.9,Paamiut,2019-04-01 10:31:17,GL,14.36,6.1
0.0,41.89,12.48,1554114617.0,48.0,293.15,1018.39,Rome,2019-04-01 10:30:17,IT,2.8,2.1
48.0,72.79,-56.15,1554114680.0,100.0,262.197,1020.07,Upernavik,2019-04-01 10:31:20,GL,12.75,2.62
0.0,62.58,6.12,1554114662.0,56.0,280.93,1016.87,Roald,2019-04-01 10:31:02,NO,8.05,8.7
92.0,18.14,-94.15,1554114685.0,94.0,294.947,1056.47,Agua Dulce,2019-04-01 10:31:25,MX,4.7,5.57
0.0,9.49,50.81,1554114686.0,100.0,300.347,1043.86,Bandarbeyla,2019-04-01 10:31:26,SO,14.92,4.65
1.0,60.79,-161.76,1554112560.0,74.0,276.15,1065.47,Bethel,2019-04-01 09:56:00,US,12.75,3.6
0.0,62.57,11.38,1554112200.0,47.0,275.15,1013.17,Roros,2019-04-01 09:50:00,NO,9.84,5.7
0.0,14.69,-16.54,1554112800.0,60.0,296.15,1033.07,Gat,2019-04-01 10:00:00,SN,3.36,10.3
92.0,3.87,-67.92,1554114695.0,98.0,295.647,1026.07,Inirida,2019-04-01 10:31:35,CO,12.75,1.22
88.0,40.97,117.93,1554114696.0,35.0,278.147,1014.06,ChengDe,2019-04-01 10:31:36,CN,12.75,2.02
12.0,13.76,7.99,1554114698.0,14.0,311.947,1015.07,Tessaoua,2019-04-01 10:31:38,NE,11.41,6.42
24.0,53.19,44.05,1554114699.0,90.0,274.997,1022.27,Kamenka,2019-04-01 10:31:39,RU,9.33,1.25
20.0,61.69,27.27,1554114605.0,55.0,275.93,1059.07,Mikkeli,2019-04-01 10:30:05,FI,4.92,5.7
92.0,-26.98,-56.83,1554114702.0,83.0,298.247,1069.07,San Patricio,2019-04-01 10:31:42,PY,5.82,1.12
90.0,49.0,-64.4,1554113880.0,96.0,274.15,1045.67,Riviere-au-Renard,2019-04-01 10:18:00,CA,4.7,3.6
75.0,8.96,38.73,1554109200.0,38.0,296.15,1066.99,Lebu,2019-04-01 09:00:00,ET,6.53,2.1
36.0,-46.43,-67.52,1554114709.0,51.0,289.147,1048.09,Mar del Plata,2019-04-01 10:31:49,AR,14.58,6.67
20.0,49.72,-86.95,1554112800.0,61.0,265.15,1018.08,Geraldton,2019-04-01 10:00:00,CA,11.41,2.1
0.0,-25.24,130.99,1554109200.0,14.0,301.15,1045.93,Yulara,2019-04-01 09:00:00,AU,2.91,5.7
12.0,65.53,72.51,1554114714.0,90.0,272.097,1026.31,Nadym,2019-04-01 10:31:54,RU,1.83,4.4
20.0,-42.48,-73.76,1554112800.0,93.0,283.15,1049.27,Castro,2019-04-01 10:00:00,CL,8.05,1.5
75.0,35.73,140.83,1554114628.0,81.0,279.26,1064.92,Hasaki,2019-04-01 10:30:28,JP,13.31,5.7
1.0,40.54,-75.5,1554114701.0,46.0,272.59,1041.06,Emmaus,2019-04-01 10:31:41,US,4.74,5.7
90.0,45.85,-66.47,1554114670.0,73.0,273.15,1015.15,Oromocto,2019-04-01 10:31:10,CA,18.34,5.1
0.0,64.25,-15.21,1554113460.0,44.0,277.15,1061.68,Hofn,2019-04-01 10:11:00,IS,13.91,4.17
32.0,-20.63,-46.0,1554114724.0,71.0,297.597,1058.27,Ponta do Sol,2019-04-01 10:32:04,BR,3.36,2.2
20.0,-20.34,57.76,1554114542.0,66.0,303.15,1033.07,Bambous Virieux,2019-04-01 10:29:02,MU,9.17,2.6
0.0,-38.38,142.48,1554114605.0,82.0,284.82,1076.44,Warrnambool,2019-04-01 10:30:05,AU,5.41,2.27
90.0,39.17,8.53,1554114638.0,67.0,290.15,1058.44,Carbonia,2019-04-01 10:30:38,IT,2.84,2.1
8.0,-16.7,-151.02,1554114731.0,99.0,301.997,1038.91,Fare,2019-04-01 10:32:11,PF,20.13,2.92
36.0,53.14,140.72,1554114732.0,76.0,268.097,1009.3,Nikolayevsk-na-amure,2019-04-01 10:32:12,RU,11.86,5.12
24.0,32.38,15.09,1554114734.0,79.0,291.497,1031.07,Misratah,2019-04-01 10:32:14,LY,10.29,6.52
20.0,43.04,-71.18,1554114544.0,59.0,274.82,1043.87,Raymond,2019-04-01 10:29:04,US,4.7,5.1
20.0,-10.07,-78.15,1554114738.0,92.0,290.297,1035.22,Huarmey,2019-04-01 10:32:18,PE,12.3,1.3
0.0,27.69,-105.17,1554114740.0,71.0,279.397,1008.94,Camargo,2019-04-01 10:32:20,MX,4.59,0.82
0.0,-27.18,151.26,1554113758.0,63.0,292.15,1038.07,Dalby,2019-04-01 10:15:58,AU,3.36,3.6
0.0,10.93,108.1,1554114631.0,86.0,300.847,1068.97,Phan Thiet,2019-04-01 10:30:31,VN,6.82,5.95
0.0,-33.42,149.58,1554114609.0,64.0,287.59,1044.94,Bathurst,2019-04-01 10:30:09,AU,3.24,2.12
44.0,66.69,34.34,1554114746.0,76.0,273.197,1065.55,Umba,2019-04-01 10:32:26,RU,3.58,8.2
0.0,27.03,14.43,1554114749.0,38.0,299.047,1042.07,Sabha,2019-04-01 10:32:29,LY,18.34,6.22
80.0,-19.55,169.27,1554109200.0,83.0,297.15,1018.67,Isangel,2019-04-01 09:00:00,VU,16.11,1.5
90.0,25.87,-97.51,1554114713.0,93.0,283.15,1058.07,Matamoros,2019-04-01 10:31:53,US,11.41,4.1
68.0,18.74,7.39,1554114753.0,34.0,307.247,1059.69,Arlit,2019-04-01 10:32:33,NE,2.37,2.42
0.0,17.54,120.52,1554114755.0,74.0,297.247,1074.47,San Quintin,2019-04-01 10:32:35,PH,6.93,1.27
32.0,39.51,54.36,1554114756.0,66.0,285.347,1039.06,Balkanabat,2019-04-01 10:32:36,TM,13.87,5.55
8.0,39.24,55.52,1554114758.0,71.0,286.397,1061.77,Gazanjyk,2019-04-01 10:32:38,TM,5.03,9.0
8.0,66.83,70.83,1554114759.0,79.0,269.947,1052.87,Yar-Sale,2019-04-01 10:32:39,RU,12.75,5.3
40.0,53.99,-1.54,1554114558.0,75.0,282.04,1056.47,Harrogate,2019-04-01 10:29:18,GB,4.7,4.6
0.0,-38.95,-68.06,1554112800.0,67.0,289.15,1056.47,Neuquen,2019-04-01 10:00:00,AR,4.7,2.1
64.0,0.53,72.93,1554114764.0,100.0,301.397,1076.17,Thinadhoo,2019-04-01 10:32:44,MV,8.61,1.3
0.0,29.96,122.3,1554114769.0,88.0,284.347,1013.8,Shenjiamen,2019-04-01 10:32:49,CN,6.6,5.5
8.0,42.9,133.91,1554114770.0,55.0,269.747,995.27,Preobrazheniye,2019-04-01 10:32:50,RU,2.24,2.05
1.0,37.46,-122.43,1554114768.0,87.0,285.93,1048.54,Half Moon Bay,2019-04-01 10:32:48,US,6.53,1.5
56.0,7.42,81.82,1554114773.0,65.0,303.097,1078.6,Kalmunai,2019-04-01 10:32:53,LK,5.26,3.05
68.0,-34.48,-54.34,1554114776.0,96.0,289.747,1027.08,Rocha,2019-04-01 10:32:56,UY,12.75,1.45
56.0,-13.19,49.05,1554114778.0,94.0,301.197,1063.75,Ambilobe,2019-04-01 10:32:58,MG,13.87,1.6
20.0,10.24,-61.45,1554114693.0,94.0,296.15,1022.27,Esperance,2019-04-01 10:31:33,TT,21.92,2.3
40.0,37.72,-25.43,1554112800.0,62.0,288.15,1047.07,Vila Franca do Campo,2019-04-01 10:00:00,PT,12.35,8.2
75.0,68.56,14.91,1554114676.0,80.0,275.15,1028.47,Stokmarknes,2019-04-01 10:31:16,NO,15.88,7.2
0.0,44.17,25.38,1554114610.0,26.0,297.04,1017.07,Babaita,2019-04-01 10:30:10,RO,1.61,5.1
44.0,-11.81,-37.61,1554114539.0,100.0,297.938,1008.31,Conde,2019-04-01 10:28:59,BR,10.29,1.06
20.0,10.5,99.18,1554109200.0,59.0,306.15,1054.08,Chumphon,2019-04-01 09:00:00,TH,6.93,3.1
20.0,49.06,20.2,1554114608.0,45.0,286.48,1061.68,Svit,2019-04-01 10:30:08,SK,2.73,6.2
0.0,14.3,44.38,1554114790.0,15.0,299.097,1041.06,Yarim,2019-04-01 10:33:10,YE,4.7,2.25
0.0,18.08,-15.98,1554112800.0,49.0,294.15,1064.02,Nouakchott,2019-04-01 10:00:00,MR,9.06,5.7
64.0,-19.06,-169.92,1554112800.0,94.0,296.15,1054.67,Alofi,2019-04-01 10:00:00,NU,3.36,2.1
20.0,19.55,-71.08,1554109200.0,100.0,296.15,1022.07,Mao,2019-04-01 09:00:00,DO,4.7,2.1
36.0,9.6,-5.2,1554114796.0,55.0,307.097,1038.47,Ferkessedougou,2019-04-01 10:33:16,CI,5.82,3.85
0.0,40.73,124.78,1554114797.0,46.0,272.447,1020.07,Kuandian,2019-04-01 10:33:17,CN,4.7,2.95
20.0,60.91,-46.05,1554112200.0,36.0,262.15,1060.42,Narsaq,2019-04-01 09:50:00,GL,3.91,1.0
56.0,-35.17,173.16,1554114800.0,100.0,291.747,1036.67,Ahipara,2019-04-01 10:33:20,NZ,8.05,2.92
44.0,7.3,8.73,1554114802.0,60.0,308.447,1071.04,Shar,2019-04-01 10:33:22,NG,7.65,2.35
0.0,71.64,128.87,1554114803.0,70.0,263.597,1009.84,Tiksi,2019-04-01 10:33:23,RU,18.72,1.9
40.0,55.46,-4.63,1554114744.0,80.0,279.82,1004.27,Ayr,2019-04-01 10:32:24,GB,6.93,5.7
0.0,11.0,122.67,1554114806.0,44.0,300.197,1017.76,Dingle,2019-04-01 10:33:26,PH,2.24,6.2
92.0,62.23,-6.59,1554112200.0,86.0,277.15,1008.07,Klaksvik,2019-04-01 09:50:00,FO,2.91,9.8
0.0,31.87,121.18,1554114629.0,31.0,290.93,1010.92,Haimen,2019-04-01 10:30:29,CN,6.64,5.52
0.0,53.06,32.85,1554114810.0,51.0,280.597,992.92,Mglin,2019-04-01 10:33:30,RU,14.7,7.1
1.0,50.84,-118.99,1554114612.0,100.0,274.26,1051.6,Sicamous,2019-04-01 10:30:12,CA,2.91,0.72
0.0,71.98,102.47,1554114813.0,79.0,269.397,1052.87,Khatanga,2019-04-01 10:33:33,RU,6.93,4.6
0.0,44.51,12.04,1554114764.0,55.0,294.82,1011.64,Alfonsine,2019-04-01 10:32:44,IT,8.1,3.1
88.0,-1.77,-55.87,1554114816.0,92.0,299.047,986.27,Oriximina,2019-04-01 10:33:36,BR,1.57,1.22
40.0,-35.36,150.48,1554114618.0,82.0,287.59,1051.15,Ulladulla,2019-04-01 10:30:18,AU,6.64,2.1
88.0,-3.66,152.44,1554114819.0,100.0,300.347,1013.8,Namatanai,2019-04-01 10:33:39,PG,8.1,4.05
8.0,-13.71,-76.2,1554112800.0,30.0,295.15,1029.47,Pisco,2019-04-01 10:00:00,PE,8.05,1.5
1.0,32.77,-108.28,1554114739.0,74.0,277.04,1029.47,Silver City,2019-04-01 10:32:19,US,1.9,2.1
90.0,-0.39,-78.55,1554114712.0,93.0,286.15,1049.27,San Cristobal,2019-04-01 10:31:52,EC,9.17,2.6
1.0,50.27,-119.27,1554114648.0,86.0,275.93,1062.04,Vernon,2019-04-01 10:30:48,CA,2.01,2.1
20.0,-0.74,-90.35,1554114666.0,98.0,298.347,1061.87,Puerto Ayora,2019-04-01 10:31:06,EC,8.05,1.75
48.0,-37.83,140.78,1554109200.0,71.0,285.15,1010.29,Mount Gambier,2019-04-01 09:00:00,AU,7.05,3.6
0.0,14.4,46.47,1554114830.0,19.0,304.247,1031.27,Marzuq,2019-04-01 10:33:50,YE,11.18,3.42
80.0,67.55,63.78,1554114832.0,91.0,270.247,1016.86,Komsomolskiy,2019-04-01 10:33:52,RU,7.27,8.37
90.0,68.22,-135.01,1554112800.0,79.0,267.15,1080.49,Aklavik,2019-04-01 10:00:00,CA,8.95,3.1
24.0,49.98,92.07,1554114835.0,94.0,274.647,1046.07,Ulaangom,2019-04-01 10:33:55,MN,6.93,1.0
90.0,47.48,-94.89,1554114604.0,100.0,269.26,1066.0,Bemidji,2019-04-01 10:30:04,US,2.73,1.3
56.0,64.42,-173.23,1554114838.0,92.0,270.847,1052.87,Provideniya,2019-04-01 10:33:58,RU,9.95,2.97
36.0,69.38,178.42,1554114841.0,76.0,260.847,1022.27,Leningradskiy,2019-04-01 10:34:01,RU,13.42,6.57
36.0,-29.41,-66.86,1554114842.0,95.0,293.447,1060.15,La Rioja,2019-04-01 10:34:02,AR,8.77,1.3
1.0,22.08,-159.32,1554114806.0,82.0,294.15,1073.47,Kapaa,2019-04-01 10:33:26,US,4.92,3.1
80.0,69.49,88.39,1554114847.0,91.0,271.247,1063.03,Talnakh,2019-04-01 10:34:07,RU,1.5,3.62
75.0,63.75,-68.52,1554114721.0,77.0,257.15,1017.07,Iqaluit,2019-04-01 10:32:01,CA,9.17,0.7
0.0,-30.97,22.13,1554114850.0,23.0,293.197,1002.64,Carnarvon,2019-04-01 10:34:10,ZA,4.85,2.97
48.0,65.95,111.51,1554114851.0,83.0,272.447,1017.22,Aykhal,2019-04-01 10:34:11,RU,5.08,3.62
12.0,54.28,-0.41,1554114782.0,61.0,281.15,1075.72,Scarborough,2019-04-01 10:33:02,GB,4.59,3.6
90.0,-13.65,-73.37,1554112800.0,100.0,281.15,1064.92,San Jeronimo,2019-04-01 10:00:00,PE,4.92,0.85
40.0,32.3,-64.78,1554114605.0,82.0,292.15,1074.47,Hamilton,2019-04-01 10:30:05,BM,11.41,4.1
68.0,-2.88,108.27,1554114858.0,100.0,299.247,1044.07,Manggar,2019-04-01 10:34:18,ID,2.24,0.9
5.0,21.23,-86.73,1554114141.0,78.0,299.15,1029.47,Isla Mujeres,2019-04-01 10:22:21,MX,24.16,3.6
92.0,66.77,123.37,1554114861.0,83.0,270.497,1031.27,Zhigansk,2019-04-01 10:34:21,RU,17.22,3.15
40.0,47.92,106.92,1554111000.0,21.0,282.15,1066.36,Ulaanbaatar,2019-04-01 09:30:00,MN,8.88,5.0
12.0,56.76,48.47,1554114864.0,94.0,274.147,1062.85,Sovetskiy,2019-04-01 10:34:24,RU,4.03,3.25
0.0,27.02,75.0,1554114869.0,8.0,309.497,1015.07,Nawa,2019-04-01 10:34:29,IN,12.75,4.0
0.0,22.89,-109.91,1554114356.0,53.0,290.37,1022.07,Cabo San Lucas,2019-04-01 10:25:56,MX,2.91,3.1
64.0,-2.95,25.92,1554114874.0,71.0,301.447,1032.06,Kindu,2019-04-01 10:34:34,CD,11.18,1.22
0.0,-28.24,-48.67,1554112800.0,94.0,294.15,995.27,Imbituba,2019-04-01 10:00:00,BR,2.24,4.45
20.0,-23.87,35.38,1554109200.0,48.0,302.15,1049.27,Inhambane,2019-04-01 09:00:00,MZ,3.36,2.1
0.0,61.25,73.4,1554112800.0,48.0,277.15,1054.67,Surgut,2019-04-01 10:00:00,RU,5.75,6.0
0.0,8.02,-62.41,1554114881.0,70.0,298.197,991.12,Upata,2019-04-01 10:34:41,VE,2.73,3.92
0.0,25.02,37.27,1554114883.0,70.0,295.047,1001.02,Umm Lajj,2019-04-01 10:34:43,SA,2.28,5.05
0.0,-1.87,15.88,1554114884.0,77.0,305.597,1026.07,Gamboma,2019-04-01 10:34:44,CG,6.93,2.2
0.0,-9.17,-60.63,1554114886.0,85.0,299.797,1042.07,Aripuana,2019-04-01 10:34:46,BR,8.05,0.67
1.0,39.95,-94.76,1554114724.0,77.0,274.26,1023.06,Kodiak,2019-04-01 10:32:04,US,15.66,4.1
88.0,62.53,155.8,1554114785.0,85.0,266.247,1031.27,Omsukchan,2019-04-01 10:33:05,RU,6.93,2.17
0.0,45.76,106.27,1554114890.0,66.0,274.347,1029.07,Mandalgovi,2019-04-01 10:34:50,MN,12.75,2.27
36.0,14.92,78.02,1554114892.0,33.0,306.847,1018.08,Tadpatri,2019-04-01 10:34:52,IN,5.82,2.05
56.0,-8.35,113.61,1554114893.0,100.0,300.847,1035.07,Ambulu,2019-04-01 10:34:53,ID,23.04,2.2
20.0,8.13,77.3,1554112800.0,59.0,306.15,1046.2,Manavalakurichi,2019-04-01 10:00:00,IN,4.07,5.1
20.0,39.36,-9.38,1554114855.0,67.0,289.26,1072.57,Peniche,2019-04-01 10:34:15,PT,6.38,1.0
20.0,60.4,-1.35,1554112200.0,75.0,281.15,1033.07,Brae,2019-04-01 09:50:00,GB,3.36,10.8
20.0,33.93,134.5,1554114858.0,86.0,282.15,1049.27,Katsuura,2019-04-01 10:34:18,JP,2.24,7.7
12.0,10.57,72.64,1554114902.0,100.0,301.647,1047.47,Kavaratti,2019-04-01 10:35:02,IN,9.17,3.97
92.0,-21.04,-57.87,1554114904.0,87.0,299.697,1058.89,Fuerte Olimpo,2019-04-01 10:35:04,BR,2.51,1.8
76.0,4.14,96.13,1554114905.0,100.0,300.897,1037.07,Meulaboh,2019-04-01 10:35:05,ID,11.41,1.52
80.0,12.18,125.51,1554114907.0,88.0,299.597,1063.39,San Policarpo,2019-04-01 10:35:07,PH,2.57,5.27
92.0,40.13,63.45,1554114908.0,62.0,285.197,1019.07,Gazli,2019-04-01 10:35:08,UZ,16.11,5.8
40.0,71.03,27.85,1554112200.0,58.0,273.15,1023.06,Mehamn,2019-04-01 09:50:00,NO,1.79,5.7
92.0,50.68,156.12,1554114726.0,100.0,270.347,1049.27,Severo-Kurilsk,2019-04-01 10:32:06,RU,9.17,2.72
1.0,36.12,-97.06,1554114902.0,80.0,277.04,1054.67,Stillwater,2019-04-01 10:35:02,US,9.17,1.3
0.0,50.42,25.75,1554113437.0,36.0,282.59,1056.01,Dubno,2019-04-01 10:10:37,UA,3.24,5.0
20.0,60.72,-46.03,1554112200.0,36.0,262.15,1022.07,Qaqortoq,2019-04-01 09:50:00,GL,14.99,1.0
92.0,-46.28,169.85,1554114854.0,74.0,281.48,1066.99,Kaitangata,2019-04-01 10:34:14,NZ,6.53,6.26
0.0,43.58,7.11,1554114776.0,67.0,292.15,998.59,Antibes,2019-04-01 10:32:56,FR,4.41,1.5
76.0,4.94,-52.33,1554112800.0,94.0,295.15,1034.08,Cayenne,2019-04-01 10:00:00,GF,1.99,2.57
44.0,68.06,166.44,1554114921.0,78.0,259.847,1064.92,Bilibino,2019-04-01 10:35:21,RU,6.87,1.22
0.0,54.43,119.94,1554114923.0,70.0,265.347,1067.98,Tupik,2019-04-01 10:35:23,RU,10.4,1.02
90.0,31.46,-100.44,1554114712.0,52.0,279.26,1072.75,San Angelo,2019-04-01 10:31:52,US,5.86,3.1
0.0,24.76,-107.7,1554114915.0,90.0,288.15,1044.07,Navolato,2019-04-01 10:35:15,MX,14.99,3.6
20.0,59.7,30.79,1554114791.0,64.0,277.59,1061.86,Nikolskoye,2019-04-01 10:33:11,RU,5.41,7.0
90.0,29.36,-100.9,1554112680.0,61.0,282.15,1076.8,Del Rio,2019-04-01 09:58:00,US,3.36,3.1
0.0,60.61,15.63,1554114909.0,30.0,280.93,1046.07,Falun,2019-04-01 10:35:09,SE,6.93,5.7
90.0,49.2,-113.32,1554114860.0,96.0,274.82,1066.9,Cardston,2019-04-01 10:34:20,CA,2.39,2.6
75.0,50.12,-5.53,1554114903.0,93.0,284.26,993.55,Penzance,2019-04-01 10:35:03,GB,4.29,10.3
32.0,41.42,-6.55,1554114935.0,41.0,290.447,1017.07,Saldanha,2019-04-01 10:35:35,PT,3.02,1.82
0.0,14.2,24.66,1554114936.0,18.0,305.097,1026.07,Kutum,2019-04-01 10:35:36,SD,6.31,2.85
20.0,-41.87,-73.83,1554112800.0,93.0,283.15,1018.08,Ancud,2019-04-01 10:00:00,CL,5.82,1.5
40.0,4.91,-75.23,1554112800.0,100.0,292.15,1024.07,Rosarito,2019-04-01 10:00:00,CO,9.17,1.0
20.0,61.68,96.39,1554114941.0,86.0,271.997,1063.84,Baykit,2019-04-01 10:35:41,RU,8.16,5.2
20.0,33.08,-16.33,1554112800.0,59.0,291.15,1040.27,Camacha,2019-04-01 10:00:00,PT,6.71,4.1
32.0,-3.99,122.52,1554114944.0,96.0,297.497,1058.71,Kendari,2019-04-01 10:35:44,ID,2.84,1.12
0.0,50.67,13.08,1554114917.0,50.0,285.37,1055.02,Warmbad,2019-04-01 10:35:17,DE,3.02,5.1
32.0,-0.95,122.79,1554114682.0,93.0,299.997,1053.94,Luwuk,2019-04-01 10:31:22,ID,6.6,1.15
20.0,41.28,-70.1,1554114897.0,64.0,275.37,1043.87,Nantucket,2019-04-01 10:34:57,US,6.93,7.2
12.0,48.94,-125.55,1554114926.0,97.0,277.59,1054.67,Ucluelet,2019-04-01 10:35:26,CA,4.7,0.8
0.0,-32.49,137.76,1554114408.0,68.0,292.15,1026.07,Port Augusta,2019-04-01 10:26:48,AU,3.36,4.1
0.0,27.87,-0.29,1554112800.0,40.0,295.15,1016.87,Adrar,2019-04-01 10:00:00,DZ,13.87,4.1
92.0,-16.98,-65.13,1554114956.0,95.0,295.897,1052.08,Chimore,2019-04-01 10:35:56,BO,6.93,1.45
0.0,62.78,29.36,1554114726.0,64.0,277.04,1014.06,Sola,2019-04-01 10:32:06,FI,10.29,6.7
8.0,-16.78,-151.5,1554114960.0,99.0,301.997,993.82,Tevaitoa,2019-04-01 10:36:00,PF,17.22,2.92
0.0,53.94,139.92,1554114964.0,77.0,263.997,1063.03,Mnogovershinnyy,2019-04-01 10:36:04,RU,5.41,1.97
12.0,-41.16,146.17,1554114964.0,80.0,283.71,1038.37,Ulverstone,2019-04-01 10:36:04,AU,3.91,0.89
12.0,-14.25,129.55,1554114969.0,67.0,300.847,1064.92,Port Keats,2019-04-01 10:36:09,AU,11.97,3.07
36.0,-19.66,22.19,1554114970.0,45.0,302.547,1043.08,Nokaneng,2019-04-01 10:36:10,BW,8.01,4.65
32.0,-17.91,19.77,1554114972.0,31.0,305.197,1034.87,Rundu,2019-04-01 10:36:12,NA,15.66,2.62
0.0,48.64,13.53,1554114962.0,50.0,289.26,1056.19,Wanning,2019-04-01 10:36:02,AT,1.9,6.7
0.0,13.08,109.3,1554114955.0,83.0,299.147,1058.44,Tuy Hoa,2019-04-01 10:35:55,VN,2.24,2.42
0.0,6.37,5.65,1554114976.0,60.0,307.447,1064.74,Taboga,2019-04-01 10:36:16,NG,6.87,1.5
0.0,45.6,-0.6,1554114958.0,62.0,290.37,1051.07,Souillac,2019-04-01 10:35:58,FR,2.24,3.1
0.0,6.88,73.1,1554114979.0,100.0,301.947,1050.06,Dhidhdhoo,2019-04-01 10:36:19,MV,5.82,1.07
88.0,69.7,170.27,1554114981.0,80.0,261.197,1060.07,Pevek,2019-04-01 10:36:21,RU,3.36,1.92
1.0,43.97,-111.68,1554114956.0,80.0,274.26,1070.87,Saint Anthony,2019-04-01 10:35:56,US,4.7,1.35
1.0,30.04,-94.42,1554114933.0,93.0,279.26,1034.23,Nome,2019-04-01 10:35:33,US,2.06,2.82
1.0,42.49,-96.07,1554114963.0,83.0,274.82,1023.06,Moville,2019-04-01 10:36:03,US,9.17,2.6
75.0,38.13,140.3,1554114712.0,88.0,278.15,1008.94,Kaminoyama,2019-04-01 10:31:52,JP,7.65,4.1
0.0,-17.73,-39.27,1554114988.0,100.0,300.247,1028.07,Caravelas,2019-04-01 10:36:28,BR,10.29,3.65
0.0,50.41,80.25,1554112800.0,54.0,287.15,1019.07,Semey,2019-04-01 10:00:00,KZ,5.82,3.0
20.0,-9.87,-56.08,1554114991.0,94.0,297.397,1021.0,Alta Floresta,2019-04-01 10:36:31,BR,9.28,1.27
80.0,0.61,-80.02,1554114993.0,92.0,295.347,1056.47,Muisne,2019-04-01 10:36:33,EC,9.17,1.35
0.0,-33.69,-53.46,1554114994.0,99.0,294.747,1062.31,Chuy,2019-04-01 10:36:34,UY,3.91,2.95
1.0,40.42,-120.65,1554114948.0,75.0,276.15,1002.47,Susanville,2019-04-01 10:35:48,US,9.17,0.95
20.0,14.76,-90.99,1554112800.0,87.0,289.15,1018.08,Tecpan,2019-04-01 10:00:00,GT,6.93,3.1
1.0,21.32,-158.01,1554114903.0,82.0,295.15,1039.06,Ewa Beach,2019-04-01 10:35:03,US,6.93,2.1
75.0,36.66,137.31,1554114995.0,86.0,279.26,1028.07,Tateyama,2019-04-01 10:36:35,JP,8.05,1.5
40.0,63.44,-20.27,1554112800.0,59.0,274.15,1074.47,Vestmannaeyjar,2019-04-01 10:00:00,IS,10.29,6.2
0.0,42.77,-9.06,1554114905.0,51.0,293.71,1083.47,Muros,2019-04-01 10:35:05,ES,6.93,3.1
90.0,50.2,-66.38,1554114793.0,86.0,272.59,1074.82,Sept-Iles,2019-04-01 10:33:13,CA,3.51,4.6
44.0,69.44,-133.03,1554115006.0,80.0,261.347,1011.91,Tuktoyaktuk,2019-04-01 10:36:46,CA,5.37,7.7
76.0,-8.93,125.41,1554115007.0,92.0,294.497,1060.6,Airai,2019-04-01 10:36:47,TL,10.11,0.45
75.0,54.63,-8.45,1554114723.0,87.0,281.15,1060.07,Killybegs,2019-04-01 10:32:03,IE,10.29,3.1
8.0,19.67,97.21,1554115010.0,36.0,299.797,1054.08,Loikaw,2019-04-01 10:36:50,MM,1.39,2.42
80.0,66.0,57.56,1554115012.0,90.0,272.447,1082.02,Usinsk,2019-04-01 10:36:52,RU,5.26,4.27
24.0,27.97,-114.04,1554115013.0,49.0,286.097,1012.06,Guerrero Negro,2019-04-01 10:36:53,MX,7.87,1.75
0.0,25.21,64.64,1554115015.0,63.0,300.847,1011.47,Ormara,2019-04-01 10:36:55,PK,26.84,5.35
44.0,38.48,106.21,1554114974.0,1.0,288.71,1034.87,Yinchuan,2019-04-01 10:36:14,CN,20.8,3.58
0.0,50.28,31.76,1554112800.0,34.0,284.15,1003.09,Yahotyn,2019-04-01 10:00:00,UA,4.03,7.0
64.0,-7.37,108.54,1554115020.0,97.0,295.997,1075.45,Banjar,2019-04-01 10:37:00,ID,4.74,0.85
92.0,-7.95,110.28,1554115021.0,96.0,297.247,991.67,Bambanglipuro,2019-04-01 10:37:01,ID,11.41,1.0
8.0,-15.19,12.15,1554115023.0,95.0,300.747,1051.07,Namibe,2019-04-01 10:37:03,AO,6.93,3.07
75.0,-23.68,-45.44,1554112800.0,94.0,293.15,993.47,Porto Novo,2019-04-01 10:00:00,BR,25.28,1.0
20.0,39.45,22.34,1554114813.0,45.0,292.59,1016.23,Saint George,2019-04-01 10:33:33,GR,5.86,2.6
75.0,-9.24,-35.49,1554112800.0,88.0,298.15,1007.87,Passo de Camaragibe,2019-04-01 10:00:00,BR,5.82,1.5
20.0,9.54,99.94,1554114600.0,66.0,304.15,1058.08,Ko Samui,2019-04-01 10:30:00,TH,4.81,2.1
0.0,27.34,117.49,1554115030.0,87.0,283.797,1047.19,Shaowu,2019-04-01 10:37:10,CN,1.79,0.92
1.0,35.31,-78.61,1554115022.0,47.0,277.59,1017.58,Dunn,2019-04-01 10:37:02,US,8.95,4.1
56.0,60.14,-45.24,1554114784.0,100.0,269.747,1084.27,Nanortalik,2019-04-01 10:33:04,GL,11.79,3.42
90.0,49.14,-55.34,1554114655.0,100.0,280.37,1060.07,Botwood,2019-04-01 10:30:55,CA,2.24,4.6
90.0,35.17,-103.73,1554114617.0,74.0,275.37,1040.27,Tucumcari,2019-04-01 10:30:17,US,11.41,2.6
0.0,37.16,122.42,1554115039.0,55.0,276.447,1018.67,Rongcheng,2019-04-01 10:37:19,CN,4.7,4.15
0.0,-23.7,133.88,1554112800.0,17.0,296.15,1019.83,Alice Springs,2019-04-01 10:00:00,AU,5.08,4.1
24.0,-3.5,104.19,1554115042.0,90.0,299.397,1059.06,Prabumulih,2019-04-01 10:37:22,ID,3.36,1.75
75.0,55.74,-97.86,1554112800.0,67.0,266.15,1046.07,Thompson,2019-04-01 10:00:00,CA,3.36,4.1
1.0,64.84,-147.72,1554114701.0,80.0,274.82,1050.06,Fairbanks,2019-04-01 10:31:41,US,8.01,3.1
1.0,46.98,-123.89,1554114815.0,75.0,286.48,1066.18,Hoquiam,2019-04-01 10:33:35,US,10.63,3.1
75.0,39.03,43.36,1554112200.0,75.0,280.37,1060.07,Ercis,2019-04-01 09:50:00,TR,8.05,3.6
20.0,6.12,81.12,1554113400.0,66.0,306.15,1076.27,Hambantota,2019-04-01 10:10:00,LK,16.11,4.6
20.0,9.11,18.35,1554112800.0,31.0,311.15,1013.27,Kibala,2019-04-01 10:00:00,TD,29.97,3.1
0.0,-4.85,21.56,1554115054.0,57.0,306.347,1013.27,Mweka,2019-04-01 10:37:34,CD,5.82,1.57
48.0,46.54,138.33,1554115055.0,100.0,271.397,1058.27,Svetlaya,2019-04-01 10:37:35,RU,4.7,2.4
32.0,13.72,123.58,1554115057.0,88.0,298.447,1066.72,Sabang,2019-04-01 10:37:37,PH,6.87,4.52
0.0,-20.73,139.49,1554112800.0,38.0,298.15,1066.27,Mount Isa,2019-04-01 10:00:00,AU,11.86,4.6
0.0,39.44,21.21,1554114837.0,32.0,294.82,1014.16,Theodoriana,2019-04-01 10:33:57,GR,4.52,0.62
0.0,13.47,22.2,1554115063.0,17.0,310.347,1058.27,Adre,2019-04-01 10:37:43,TD,6.93,2.35
80.0,50.56,-96.99,1554114935.0,82.0,271.48,1015.07,Husavik,2019-04-01 10:35:35,CA,16.11,3.52
90.0,64.73,177.51,1554114747.0,100.0,271.15,980.87,Anadyr,2019-04-01 10:32:27,RU,11.41,12.0
75.0,-45.58,-72.07,1554112800.0,62.0,284.15,1064.02,Coihaique,2019-04-01 10:00:00,CL,2.39,9.3
0.0,46.45,135.83,1554115069.0,61.0,266.497,1074.19,Vostok,2019-04-01 10:37:49,RU,7.43,1.8
0.0,14.24,75.65,1554115070.0,37.0,306.697,1035.07,Honnali,2019-04-01 10:37:50,IN,15.01,2.12
20.0,78.22,15.63,1554112200.0,65.0,260.15,1018.08,Longyearbyen,2019-04-01 09:50:00,NO,3.36,5.1
90.0,-31.43,152.91,1554114905.0,82.0,293.15,1054.08,Port Macquarie,2019-04-01 10:35:05,AU,8.05,3.1
20.0,69.22,-51.1,1554112200.0,60.0,261.15,1049.07,Ilulissat,2019-04-01 09:50:00,GL,7.76,11.3
64.0,66.42,112.4,1554115076.0,79.0,273.797,1066.45,Udachnyy,2019-04-01 10:37:56,RU,3.24,2.62
90.0,53.82,-101.24,1554112800.0,73.0,269.15,1015.96,The Pas,2019-04-01 10:00:00,CA,15.43,2.6
80.0,-2.64,-80.39,1554115079.0,85.0,297.047,1013.17,Playas,2019-04-01 10:37:59,EC,8.61,2.15
68.0,42.84,93.51,1554115081.0,40.0,290.997,1076.62,Hami,2019-04-01 10:38:01,CN,12.08,0.8
0.0,63.32,30.02,1554115084.0,52.0,274.547,1018.08,Lieksa,2019-04-01 10:38:04,FI,4.7,4.0
8.0,12.18,6.51,1554115085.0,19.0,311.597,1033.07,Auki,2019-04-01 10:38:05,NG,8.01,5.27
20.0,18.44,-78.17,1554112800.0,78.0,298.15,998.08,Lucea,2019-04-01 10:00:00,JM,14.99,1.0
0.0,60.37,28.62,1554110409.0,76.0,277.59,1049.07,Primorsk,2019-04-01 09:20:09,RU,4.52,5.81
90.0,35.72,52.07,1554114742.0,76.0,287.15,1062.58,Damavand,2019-04-01 10:32:22,IR,3.4,5.1
75.0,40.21,140.05,1554113400.0,80.0,275.15,1058.27,Noshiro,2019-04-01 10:10:00,JP,11.41,2.1
0.0,53.07,105.52,1554115094.0,40.0,275.797,1059.52,Bayanday,2019-04-01 10:38:14,RU,4.85,2.27
1.0,18.42,-64.62,1554114806.0,88.0,297.59,1067.08,Road Town,2019-04-01 10:33:26,VG,8.16,1.5
0.0,52.42,104.06,1554112800.0,42.0,282.15,1016.87,Meget,2019-04-01 10:00:00,RU,34.45,4.0
0.0,46.42,3.91,1554114712.0,47.0,290.37,1024.07,Saint-Francois,2019-04-01 10:31:52,FR,17.9,1.5
0.0,42.44,22.31,1554114994.0,25.0,292.59,1070.87,Dukat,2019-04-01 10:36:34,RS,9.17,3.58
0.0,-12.97,40.52,1554115102.0,100.0,301.547,1046.07,Pemba,2019-04-01 10:38:22,MZ,6.93,4.75
0.0,-22.95,14.51,1554112936.0,47.0,298.15,1040.89,Walvis Bay,2019-04-01 10:02:16,NA,9.1,3.6
88.0,13.81,8.99,1554112800.0,8.0,307.15,1013.27,Zinder,2019-04-01 10:00:00,NE,2.24,7.2
40.0,69.67,29.98,1554112200.0,79.0,272.15,1073.65,Bjornevatn,2019-04-01 09:50:00,NO,11.12,13.4
20.0,53.65,-115.58,1554112800.0,100.0,272.15,1033.15,Mackay,2019-04-01 10:00:00,CA,1.57,2.6
75.0,-5.2,-35.46,1554112800.0,100.0,297.15,1013.27,Touros,2019-04-01 10:00:00,BR,2.24,2.1
0.0,-27.83,25.91,1554115116.0,36.0,301.847,1063.3,Hoopstad,2019-04-01 10:38:36,ZA,5.41,3.07
75.0,34.92,32.53,1554114696.0,72.0,290.15,1060.24,Lasa,2019-04-01 10:31:36,CY,2.8,2.6
12.0,-3.54,118.97,1554115011.0,96.0,301.597,1068.34,Majene,2019-04-01 10:36:51,ID,10.29,5.3
36.0,41.26,125.37,1554115121.0,45.0,272.647,1066.0,Huanren,2019-04-01 10:38:41,CN,9.4,2.02
88.0,-32.55,115.7,1554114981.0,64.0,297.15,1070.14,Mandurah,2019-04-01 10:36:21,AU,1.5,3.1
0.0,66.5,25.72,1554114000.0,62.0,273.15,998.41,Rovaniemi,2019-04-01 10:20:00,FI,5.86,7.2
90.0,70.47,-68.59,1554112800.0,84.0,254.15,1073.65,Clyde River,2019-04-01 10:00:00,CA,4.59,5.1
8.0,-0.73,119.89,1554115127.0,84.0,300.347,1072.67,Liku,2019-04-01 10:38:47,ID,10.29,1.07
0.0,11.06,-12.4,1554115129.0,41.0,305.997,1064.65,Pita,2019-04-01 10:38:49,GN,3.36,3.32
20.0,-45.87,170.5,1554114818.0,56.0,284.26,1055.07,Dunedin,2019-04-01 10:33:38,NZ,6.93,6.71
1.0,34.99,-86.85,1554115131.0,77.0,274.82,1050.52,Ardmore,2019-04-01 10:38:51,US,20.58,1.5
40.0,-28.0,153.41,1554115118.0,56.0,294.82,1051.07,Gold Coast,2019-04-01 10:38:38,AU,20.8,3.6
20.0,-34.31,-57.35,1554114726.0,96.0,292.04,1021.63,Rosario,2019-04-01 10:32:06,UY,0.49,3.47
48.0,-7.57,24.18,1554115140.0,67.0,301.697,1009.67,Kaniama,2019-04-01 10:39:00,CD,2.24,1.45
88.0,60.47,166.1,1554115141.0,92.0,273.647,1020.07,Tilichiki,2019-04-01 10:39:01,RU,4.0,6.9
76.0,65.85,44.24,1554115143.0,68.0,272.097,1056.73,Mezen,2019-04-01 10:39:03,RU,12.08,3.85
0.0,18.9,-3.53,1554115144.0,26.0,307.347,1013.08,Araouane,2019-04-01 10:39:04,ML,20.85,5.4
12.0,50.4,39.64,1554115146.0,68.0,289.797,1052.87,Podgorenskiy,2019-04-01 10:39:06,RU,3.85,3.97
90.0,44.39,-68.2,1554115124.0,74.0,274.82,1053.04,Bar Harbor,2019-04-01 10:38:44,US,4.07,2.1
0.0,51.76,18.08,1554115144.0,27.0,283.15,1083.46,Kalisz,2019-04-01 10:39:04,PL,15.21,3.58
40.0,48.42,-71.95,1554115140.0,66.0,263.71,1039.99,Desbiens,2019-04-01 10:39:00,CA,0.6,6.7
90.0,68.36,-133.71,1554112800.0,79.0,267.15,1020.55,Inuvik,2019-04-01 10:00:00,CA,9.84,3.1
24.0,-18.42,-46.42,1554114617.0,100.0,292.04,1040.27,Presidente Olegario,2019-04-01 10:30:17,BR,9.17,2.02
20.0,-4.09,-63.14,1554115156.0,91.0,299.547,1062.94,Coari,2019-04-01 10:39:16,BR,7.87,1.52
75.0,-16.99,145.42,1554114954.0,94.0,297.15,1074.47,Mareeba,2019-04-01 10:35:54,AU,14.99,5.1
88.0,-20.34,164.44,1554115159.0,95.0,297.847,996.97,Ouegoa,2019-04-01 10:39:19,NC,2.06,2.17
88.0,-10.46,161.92,1554115161.0,100.0,302.047,1002.47,Kirakira,2019-04-01 10:39:21,SB,11.41,3.65
75.0,70.66,23.68,1554112200.0,80.0,274.15,995.35,Hammerfest,2019-04-01 09:50:00,NO,1.5,15.4
0.0,56.17,91.82,1554112800.0,44.0,278.15,1067.17,Kedrovyy,2019-04-01 10:00:00,RU,8.28,8.0
20.0,-0.72,8.78,1554112800.0,74.0,304.15,1069.07,Port-Gentil,2019-04-01 10:00:00,GA,5.82,4.1
90.0,37.57,14.28,1554114918.0,44.0,290.37,1043.05,Enna,2019-04-01 10:35:18,IT,5.03,3.1
88.0,-26.3,29.99,1554115170.0,48.0,296.747,1072.67,Breyten,2019-04-01 10:39:30,ZA,4.7,5.2
0.0,35.63,111.36,1554115171.0,25.0,287.497,1013.27,Houma,2019-04-01 10:39:31,CN,12.75,4.07
0.0,62.87,51.9,1554115173.0,71.0,273.947,1072.67,Sindor,2019-04-01 10:39:33,RU,9.17,4.15
44.0,65.08,-22.73,1554115174.0,100.0,273.547,1036.08,Stykkisholmur,2019-04-01 10:39:34,IS,9.17,3.3
40.0,43.36,132.19,1554112800.0,74.0,272.15,1043.08,Artyom,2019-04-01 10:00:00,RU,5.82,1.0
0.0,15.16,33.13,1554115178.0,20.0,305.697,,Wad Rawah,2019-04-01 10:39:38,SD,,4.97
36.0,30.78,78.62,1554115179.0,77.0,283.197,,Lata,2019-04-01 10:39:39,IN,,0.7
0.0,48.35,135.23,1554112800.0,36.0,272.15,,Nekrasovka,2019-04-01 10:00:00,RU,,1.0
76.0,-0.9,-89.6,1554115182.0,94.0,299.947,,Puerto Baquerizo Moreno,2019-04-01 10:39:42,EC,,2.42
1.0,58.3,-134.42,1554112560.0,74.0,274.15,,Juneau,2019-04-01 09:56:00,US,,0.92
36.0,-6.64,-51.99,1554114959.0,93.0,298.247,,Sao Felix do Xingu,2019-04-01 10:35:59,BR,,1.25
0.0,26.59,12.77,1554115189.0,26.0,302.747,,Awbari,2019-04-01 10:39:49,LY,,4.6
32.0,-5.11,105.31,1554115191.0,81.0,301.447,,Metro,2019-04-01 10:39:51,ID,,4.2
36.0,11.67,76.63,1554115192.0,30.0,303.747,,Bandipur,2019-04-01 10:39:52,IN,,0.67
0.0,45.34,-80.04,1554115194.0,68.0,263.897,,Parry Sound,2019-04-01 10:39:54,CA,,2.62
0.0,4.44,14.36,1554115195.0,77.0,305.697,,Batouri,2019-04-01 10:39:55,CM,,2.05
92.0,-12.79,45.27,1554112800.0,70.0,305.15,,Dzaoudzi,2019-04-01 10:00:00,YT,,4.6
8.0,-9.54,16.35,1554115198.0,78.0,300.697,,Malanje,2019-04-01 10:39:58,AO,,1.5
48.0,-2.02,147.27,1554115200.0,96.0,301.747,,Lorengau,2019-04-01 10:40:00,PG,,4.52
0.0,45.18,8.4,1554115151.0,24.0,295.37,,Vila,2019-04-01 10:39:11,IT,,3.1
0.0,39.6,-110.81,1554114908.0,63.0,273.15,,Price,2019-04-01 10:35:08,US,,1.15
0.0,-26.65,15.16,1554115102.0,78.0,292.847,,Luderitz,2019-04-01 10:38:22,NA,,9.2
20.0,20.93,-17.03,1554112800.0,64.0,293.15,,Nouadhibou,2019-04-01 10:00:00,MR,,9.3
0.0,27.38,87.21,1554115207.0,76.0,276.797,,Khandbari,2019-04-01 10:40:07,NP,,0.22
5.0,60.72,-135.06,1554114723.0,79.0,270.15,,Whitehorse,2019-04-01 10:32:03,CA,,1.0
68.0,37.17,-99.65,1554114626.0,82.0,275.93,,Sitka,2019-04-01 10:30:26,US,,1.79
48.0,-23.49,-58.8,1554115212.0,97.0,296.297,,Pozo Colorado,2019-04-01 10:40:12,PY,,5.4
44.0,67.68,53.15,1554115215.0,90.0,272.047,,Iskateley,2019-04-01 10:40:15,RU,,9.32
75.0,-28.95,153.24,1554115197.0,82.0,294.15,,Codrington,2019-04-01 10:39:57,AU,,1.72
20.0,25.38,97.4,1554115218.0,81.0,294.247,,Myitkyina,2019-04-01 10:40:18,MM,,1.82
56.0,13.0,8.91,1554115219.0,15.0,311.147,,Magaria,2019-04-01 10:40:19,NE,,6.8
56.0,-6.48,16.82,1554115221.0,78.0,299.947,,Kasongo-Lunda,2019-04-01 10:40:21,CD,,1.72
8.0,27.52,-110.01,1554115223.0,67.0,286.997,,Laguna,2019-04-01 10:40:23,MX,,0.27
80.0,61.28,108.01,1554115034.0,78.0,276.197,,Yerbogachen,2019-04-01 10:37:14,RU,,4.4
75.0,37.5,61.97,1554112800.0,61.0,287.15,,Murgab,2019-04-01 10:00:00,TM,,4.1
88.0,-0.87,134.08,1554115227.0,100.0,299.747,,Manokwari,2019-04-01 10:40:27,ID,,3.52
20.0,-3.22,40.12,1554109200.0,59.0,306.15,,Malindi,2019-04-01 09:00:00,KE,,6.7
0.0,60.75,-137.51,1554115230.0,66.0,263.097,,Haines Junction,2019-04-01 10:40:30,CA,,0.92
40.0,64.17,-51.74,1554112200.0,57.0,266.15,,Nuuk,2019-04-01 09:50:00,GL,,5.1
0.0,32.25,77.19,1554115233.0,81.0,262.197,,Manali,2019-04-01 10:40:33,IN,,0.67
0.0,-34.72,135.86,1554115234.0,97.0,289.047,,Port Lincoln,2019-04-01 10:40:34,AU,,3.97
88.0,-2.57,150.8,1554115236.0,99.0,302.097,,Kavieng,2019-04-01 10:40:36,PG,,3.7
20.0,-20.41,57.7,1554115141.0,66.0,303.15,,Mahebourg,2019-04-01 10:39:01,MU,,2.6
44.0,29.72,112.52,1554115239.0,62.0,288.697,,Dongsheng,2019-04-01 10:40:39,CN,,2.25
40.0,7.1,3.65,1554112800.0,55.0,305.15,,Keita,2019-04-01 10:00:00,NG,,2.1
40.0,70.86,29.09,1554112200.0,58.0,272.15,,Berlevag,2019-04-01 09:50:00,NO,,5.7
0.0,26.56,54.88,1554112800.0,35.0,305.15,,Bandar-e Lengeh,2019-04-01 10:00:00,IR,,4.1
20.0,52.47,1.45,1554115226.0,65.0,284.82,,Broome,2019-04-01 10:40:26,GB,,4.1
20.0,34.64,-120.46,1554115247.0,100.0,288.71,,Lompoc,2019-04-01 10:40:47,US,,2.6
