% Cloudiness,Latitude,Longitude,Date (Raw),% Humidity,Max. Temp. (K),Max. Temp. (F),City,Date (Polished),Country,Wind Speed (MPH),Wind Speed (M/s)
75.0,-22.28,166.46,1555911000.0,69.0,301.15,1065.47,Noumea,2019-04-22 05:30:00,NC,2.24,1.0
100.0,65.61,72.68,1555913878.0,100.0,274.54,1017.57,Staryy Nadym,2019-04-22 06:17:58,RU,16.8,7.51
20.0,-33.93,18.42,1555913569.0,72.0,290.93,1047.07,Cape Town,2019-04-22 06:12:49,ZA,20.8,9.3
75.0,-54.81,-68.31,1555909200.0,81.0,279.15,1025.87,Ushuaia,2019-04-22 05:00:00,AR,2.24,1.0
0.0,78.22,15.63,1555912200.0,47.0,264.15,998.87,Longyearbyen,2019-04-22 05:50:00,NO,2.24,1.0
95.0,71.97,114.09,1555913884.0,90.0,260.04,991.47,Saskylakh,2019-04-22 06:18:04,RU,8.32,3.72
20.0,41.38,2.18,1555913751.0,59.0,289.82,1045.08,Barcelona,2019-04-22 06:15:51,ES,17.22,7.7
24.0,-8.93,125.41,1555913887.0,48.0,304.34,1071.21,Airai,2019-04-22 06:18:07,TL,3.04,1.36
47.0,-34.72,135.86,1555913860.0,65.0,289.44,1044.07,Port Lincoln,2019-04-22 06:17:40,AU,9.95,5.95
100.0,-33.59,26.89,1555913784.0,96.0,289.26,1066.89,Port Alfred,2019-04-22 06:16:24,ZA,14.2,4.45
100.0,-0.6,73.08,1555913893.0,80.0,301.94,1056.99,Hithadhoo,2019-04-22 06:18:13,MV,8.79,6.35
9.0,-22.35,-60.04,1555913894.0,93.0,296.44,1058.27,Filadelfia,2019-04-22 06:18:14,PY,13.87,3.93
75.0,22.08,-159.32,1555913718.0,73.0,297.15,1053.03,Kapaa,2019-04-22 06:15:18,US,10.36,6.2
0.0,-33.21,138.6,1555913897.0,36.0,294.24,1029.47,Jamestown,2019-04-22 06:18:17,AU,2.24,4.63
90.0,-41.87,-73.83,1555909200.0,87.0,281.15,1038.47,Ancud,2019-04-22 05:00:00,CL,6.93,1.0
20.0,36.62,-121.92,1555913707.0,71.0,286.15,1085.43,Pacific Grove,2019-04-22 06:15:07,US,0.98,3.1
0.0,27.87,-0.29,1555909200.0,35.0,287.15,1040.07,Adrar,2019-04-22 05:00:00,DZ,2.24,4.1
31.0,25.52,90.21,1555913792.0,29.0,312.24,1047.47,Tura,2019-04-22 06:16:32,IN,4.7,0.44
0.0,37.27,28.22,1555912200.0,55.0,287.04,1046.73,Bayir,2019-04-22 05:50:00,TR,5.97,1.0
90.0,-1.8,-53.48,1555913909.0,99.0,296.24,1017.75,Prainha,2019-04-22 06:18:29,BR,18.57,0.84
75.0,8.96,38.73,1555912800.0,68.0,291.15,1056.27,Lebu,2019-04-22 06:00:00,ET,10.2,2.1
57.0,-30.17,-50.22,1555913915.0,70.0,290.74,1061.49,Cidreira,2019-04-22 06:18:35,BR,3.71,2.67
100.0,50.68,156.12,1555913916.0,86.0,274.64,1055.55,Severo-Kurilsk,2019-04-22 06:18:36,RU,2.26,8.3
0.0,20.52,-13.05,1555913918.0,27.0,296.04,1045.67,Atar,2019-04-22 06:18:38,MR,11.41,4.56
0.0,-33.64,115.35,1555913732.0,34.0,298.71,1037.91,Busselton,2019-04-22 06:15:32,AU,6.13,1.23
90.0,-33.8,19.88,1555913921.0,95.0,284.64,1035.75,Robertson,2019-04-22 06:18:41,ZA,5.26,2.57
77.0,-0.74,-90.35,1555913922.0,88.0,298.94,1063.83,Puerto Ayora,2019-04-22 06:18:42,EC,6.35,1.66
1.0,20.03,-96.65,1555913925.0,57.0,295.64,1029.47,Vega de Alatorre,2019-04-22 06:18:45,MX,2.24,1.01
72.0,-37.83,140.78,1555909200.0,48.0,290.15,1031.25,Mount Gambier,2019-04-22 05:00:00,AU,5.06,5.1
88.0,-46.43,-67.52,1555913928.0,44.0,285.84,1062.39,Mar del Plata,2019-04-22 06:18:48,AR,5.66,2.74
38.0,-33.01,-58.51,1555913929.0,61.0,284.64,1004.27,Gualeguaychu,2019-04-22 06:18:49,AR,13.87,2.35
100.0,-0.87,134.08,1555913847.0,72.0,300.24,976.53,Manokwari,2019-04-22 06:17:27,ID,4.43,2.84
46.0,52.76,87.85,1555913933.0,54.0,279.54,1072.67,Tashtagol,2019-04-22 06:18:53,RU,6.93,1.74
90.0,-42.48,-73.76,1555909200.0,87.0,281.15,1043.31,Castro,2019-04-22 05:00:00,CL,10.29,1.0
60.0,51.1,66.31,1555913936.0,36.0,282.14,1062.39,Derzhavinsk,2019-04-22 06:18:56,KZ,4.92,2.26
12.0,-23.12,-134.97,1555913938.0,84.0,299.44,1007.13,Rikitea,2019-04-22 06:18:58,PF,15.7,2.53
20.0,69.44,-133.03,1555909200.0,92.0,267.15,1037.07,Tuktoyaktuk,2019-04-22 05:00:00,CA,3.67,6.2
0.0,66.15,-65.72,1555913941.0,42.0,251.74,1010.19,Pangnirtung,2019-04-22 06:19:01,CA,11.9,1.98
0.0,15.34,74.49,1555909200.0,22.0,305.15,1068.69,Vaini,2019-04-22 05:00:00,IN,3.33,3.1
0.0,42.43,130.64,1555913944.0,15.0,288.84,1043.67,Khasan,2019-04-22 06:19:04,RU,14.79,4.6
100.0,4.95,-77.37,1555913945.0,84.0,299.44,1024.07,Pizarro,2019-04-22 06:19:05,CO,9.17,2.2
100.0,70.62,147.9,1555913948.0,87.0,268.74,985.53,Chokurdakh,2019-04-22 06:19:08,RU,7.76,7.02
0.0,-46.19,168.86,1555912809.0,84.0,285.37,1023.87,Mataura,2019-04-22 06:00:09,NZ,10.83,1.64
100.0,65.42,-52.9,1555913951.0,87.0,270.44,1060.07,Maniitsoq,2019-04-22 06:19:11,GL,12.75,5.32
59.0,-6.22,155.63,1555913953.0,67.0,302.94,1047.47,Kieta,2019-04-22 06:19:13,PG,10.29,1.49
0.0,32.77,22.64,1555913954.0,66.0,289.04,1047.47,Darnah,2019-04-22 06:19:14,LY,12.75,6.61
0.0,-53.16,-70.91,1555913589.0,93.0,278.15,1036.08,Punta Arenas,2019-04-22 06:13:09,CL,2.82,4.1
78.0,37.17,-99.65,1555913957.0,49.0,292.14,1052.87,Sitka,2019-04-22 06:19:17,US,3.36,6.84
100.0,72.79,-56.15,1555913959.0,89.0,256.74,1069.07,Upernavik,2019-04-22 06:19:19,GL,8.05,3.47
17.0,49.98,92.07,1555913960.0,44.0,278.04,1013.27,Ulaangom,2019-04-22 06:19:20,MN,2.89,4.84
40.0,35.73,140.83,1555913827.0,60.0,298.15,1056.47,Hasaki,2019-04-22 06:17:07,JP,14.99,5.7
20.0,-42.78,147.06,1555913955.0,39.0,291.15,1024.07,New Norfolk,2019-04-22 06:19:15,AU,18.34,4.6
2.0,-34.53,20.04,1555913715.0,72.0,291.15,1027.67,Bredasdorp,2019-04-22 06:15:15,ZA,5.82,5.7
20.0,39.31,-74.98,1555913959.0,87.0,284.82,1016.85,Port Elizabeth,2019-04-22 06:19:19,US,10.33,1.26
0.0,-13.71,-76.2,1555913799.0,77.0,294.15,1054.65,Pisco,2019-04-22 06:16:39,PE,2.28,1.5
20.0,15.43,75.63,1555909200.0,30.0,303.15,992.55,Gadag,2019-04-22 05:00:00,IN,7.87,3.6
26.0,65.61,-37.64,1555912200.0,80.0,272.15,1031.07,Tasiilaq,2019-04-22 05:50:00,GL,1.01,1.29
75.0,42.65,-73.75,1555913707.0,87.0,285.15,1040.27,Albany,2019-04-22 06:15:07,US,11.41,0.8
75.0,39.95,-94.76,1555913931.0,46.0,296.15,1047.47,Kodiak,2019-04-22 06:18:51,US,10.29,6.7
0.0,-22.46,-68.93,1555909200.0,27.0,278.15,1047.47,Calama,2019-04-22 05:00:00,CL,11.41,8.2
40.0,49.76,-94.48,1555913565.0,56.0,280.15,1058.27,Kenora,2019-04-22 06:12:45,CA,6.93,2.6
93.0,59.58,151.3,1555913980.0,72.0,274.14,1034.08,Ola,2019-04-22 06:19:40,RU,2.24,4.62
96.0,-18.36,21.84,1555913981.0,61.0,295.14,1065.47,Shakawe,2019-04-22 06:19:41,BW,9.17,1.02
100.0,77.48,-69.36,1555913983.0,91.0,260.64,1044.03,Qaanaaq,2019-04-22 06:19:43,GL,19.33,3.52
9.0,-38.55,-58.74,1555912907.0,86.0,282.04,1016.87,Necochea,2019-04-22 06:01:47,AR,8.37,0.45
20.0,35.93,36.64,1555912200.0,49.0,287.15,1020.99,Idlib,2019-04-22 05:50:00,SY,20.8,5.1
20.0,-42.88,147.33,1555913895.0,39.0,291.15,1051.07,Hobart,2019-04-22 06:18:15,AU,1.99,4.6
40.0,41.29,141.2,1555911060.0,58.0,291.15,1036.67,Mutsu,2019-04-22 05:31:00,JP,6.93,5.1
90.0,19.71,-155.08,1555913973.0,73.0,297.15,1065.07,Hilo,2019-04-22 06:19:33,US,10.29,3.1
90.0,45.36,-73.48,1555913995.0,87.0,283.71,1043.85,Saint-Philippe,2019-04-22 06:19:55,CA,3.44,1.0
75.0,26.12,127.67,1555911000.0,69.0,301.15,1022.27,Itoman,2019-04-22 05:30:00,JP,2.24,4.1
84.0,38.52,-28.7,1555913999.0,87.0,289.24,1019.73,Ribeira Grande,2019-04-22 06:19:59,PT,16.67,8.64
0.0,64.54,-21.92,1555913725.0,74.0,274.15,1074.47,Borgarnes,2019-04-22 06:15:25,IS,9.17,3.74
99.0,71.03,27.85,1555914003.0,87.0,276.44,1059.15,Mehamn,2019-04-22 06:20:03,NO,2.13,9.3
31.0,24.32,-107.36,1555913840.0,92.0,293.15,987.69,Eldorado,2019-04-22 06:17:20,MX,5.75,0.89
0.0,-26.65,15.16,1555909200.0,81.0,285.15,1051.07,Luderitz,2019-04-22 05:00:00,NA,11.41,3.1
40.0,-20.41,57.7,1555913943.0,83.0,300.93,1070.67,Mahebourg,2019-04-22 06:19:03,MU,13.82,4.6
75.0,38.76,-93.74,1555913818.0,52.0,295.37,1060.07,Warrensburg,2019-04-22 06:16:58,US,9.17,6.2
40.0,-20.34,57.76,1555913943.0,83.0,300.93,1041.06,Bambous Virieux,2019-04-22 06:19:03,MU,5.82,4.6
40.0,47.66,-52.73,1555913918.0,81.0,285.37,1031.79,Torbay,2019-04-22 06:18:38,CA,11.05,13.4
18.0,36.62,101.77,1555914014.0,23.0,289.14,1078.07,Xining,2019-04-22 06:20:14,CN,6.93,1.54
1.0,53.65,-115.58,1555912800.0,41.0,277.15,1067.07,Mackay,2019-04-22 06:00:00,CA,16.37,1.0
100.0,66.04,60.13,1555914017.0,98.0,275.74,1049.97,Inta,2019-04-22 06:20:17,RU,3.44,7.45
75.0,6.8,-58.16,1555914012.0,86.0,297.34,1003.89,Georgetown,2019-04-22 06:20:12,GY,8.32,1.07
2.0,-20.31,118.58,1555911000.0,18.0,306.15,1072.65,Port Hedland,2019-04-22 05:30:00,AU,5.17,4.1
85.0,4.42,-7.36,1555914023.0,94.0,297.64,1015.41,Tabou,2019-04-22 06:20:23,CI,18.07,0.95
0.0,69.7,170.27,1555914026.0,84.0,257.94,1037.07,Pevek,2019-04-22 06:20:26,RU,4.0,2.57
90.0,30.3,-99.24,1555914021.0,77.0,293.15,1058.07,Harper,2019-04-22 06:20:21,US,2.46,5.1
7.0,21.65,110.64,1555914029.0,72.0,304.04,1031.27,Huazhou,2019-04-22 06:20:29,CN,13.87,6.18
97.0,-28.95,153.24,1555913887.0,64.0,298.15,1024.59,Codrington,2019-04-22 06:18:07,AU,3.04,4.1
90.0,34.64,-120.46,1555913970.0,87.0,287.59,1047.27,Lompoc,2019-04-22 06:19:30,US,6.38,2.6
100.0,50.57,123.73,1555914033.0,17.0,282.44,1058.27,Alihe,2019-04-22 06:20:33,CN,4.7,4.94
75.0,5.28,115.24,1555911000.0,49.0,308.15,1041.33,Victoria,2019-04-22 05:30:00,BN,5.53,3.1
21.0,11.72,122.09,1555913839.0,67.0,302.04,1079.87,Pandan,2019-04-22 06:17:19,PH,9.17,7.32
7.0,-20.19,32.62,1555914039.0,84.0,292.54,1043.87,Chipinge,2019-04-22 06:20:39,ZW,3.36,1.54
24.0,68.75,161.3,1555914040.0,79.0,266.94,1058.43,Cherskiy,2019-04-22 06:20:40,RU,10.4,3.72
100.0,-5.36,104.98,1555914042.0,56.0,305.14,1041.06,Pringsewu,2019-04-22 06:20:42,ID,3.36,2.31
100.0,67.47,78.7,1555913777.0,94.0,273.34,1015.07,Tazovskiy,2019-04-22 06:16:17,RU,9.17,8.08
86.0,36.17,54.34,1555914045.0,80.0,277.44,1038.07,Damghan,2019-04-22 06:20:45,IR,10.29,1.86
0.0,-46.28,169.85,1555913976.0,77.0,285.37,1061.67,Kaitangata,2019-04-22 06:19:36,NZ,9.37,1.79
27.0,15.0,-83.23,1555914048.0,90.0,297.04,1021.71,Iralaya,2019-04-22 06:20:48,HN,7.78,1.1
20.0,64.84,-147.72,1555914012.0,31.0,282.15,1018.83,Fairbanks,2019-04-22 06:20:12,US,15.03,6.2
54.0,63.44,-20.27,1555914051.0,69.0,278.44,1030.06,Vestmannaeyjar,2019-04-22 06:20:51,IS,6.93,1.36
12.0,-24.14,19.11,1555914053.0,55.0,291.04,970.07,Aranos,2019-04-22 06:20:53,NA,21.92,2.85
20.0,-6.09,-35.21,1555909200.0,94.0,297.15,1029.63,Nisia Floresta,2019-04-22 05:00:00,BR,6.44,2.1
100.0,-34.0,24.73,1555914056.0,91.0,287.74,1015.07,Kruisfontein,2019-04-22 06:20:56,ZA,9.17,2.47
40.0,10.95,106.82,1555911000.0,41.0,309.15,1054.67,Bien Hoa,2019-04-22 05:30:00,VN,8.05,4.1
90.0,-33.02,27.91,1555912800.0,100.0,289.15,1052.08,East London,2019-04-22 06:00:00,ZA,4.7,1.5
0.0,21.43,39.83,1555913846.0,32.0,297.24,1066.71,Mecca,2019-04-22 06:17:26,SA,12.73,4.65
0.0,45.18,8.4,1555914053.0,62.0,287.59,1055.19,Vila,2019-04-22 06:20:53,IT,10.02,1.5
20.0,62.45,-114.38,1555913567.0,71.0,273.15,1060.07,Yellowknife,2019-04-22 06:12:47,CA,2.24,4.1
0.0,53.23,8.79,1555914005.0,50.0,285.93,1065.27,Osterholz-Scharmbeck,2019-04-22 06:20:05,DE,14.16,4.6
99.0,9.66,-68.59,1555914069.0,65.0,299.04,1027.67,San Carlos,2019-04-22 06:21:09,VE,6.93,4.19
17.0,58.97,126.27,1555914070.0,52.0,276.84,1038.47,Tommot,2019-04-22 06:21:10,RU,3.67,3.48
100.0,66.0,57.56,1555914072.0,100.0,275.24,1031.27,Usinsk,2019-04-22 06:21:12,RU,20.13,6.72
75.0,46.19,-123.83,1555914064.0,81.0,281.48,1038.07,Astoria,2019-04-22 06:21:04,US,3.0,3.1
100.0,60.71,114.91,1555914075.0,67.0,276.34,1029.47,Lensk,2019-04-22 06:21:15,RU,6.93,2.37
40.0,63.75,-68.52,1555913564.0,75.0,248.15,1079.31,Iqaluit,2019-04-22 06:12:44,CA,11.56,9.8
0.0,52.25,79.17,1555914078.0,35.0,281.24,1043.87,Klyuchi,2019-04-22 06:21:18,RU,5.82,2.88
90.0,49.72,-86.95,1555912800.0,96.0,273.15,1038.07,Geraldton,2019-04-22 06:00:00,CA,3.38,4.1
0.0,18.39,42.45,1555909200.0,52.0,295.15,1038.47,Faya,2019-04-22 05:00:00,SA,11.18,3.6
1.0,30.04,-94.42,1555914064.0,93.0,293.71,1069.23,Nome,2019-04-22 06:21:04,US,10.87,2.1
96.0,-9.8,-139.03,1555913817.0,76.0,301.84,1031.27,Atuona,2019-04-22 06:16:57,PF,11.18,5.69
100.0,27.52,-110.01,1555914087.0,63.0,295.44,1025.87,Laguna,2019-04-22 06:21:27,MX,3.36,4.48
40.0,10.24,-61.45,1555914008.0,88.0,298.15,1012.35,Esperance,2019-04-22 06:20:08,TT,7.83,1.0
49.0,-23.58,149.07,1555914090.0,47.0,301.04,1056.81,Bluff,2019-04-22 06:21:30,AU,1.99,6.33
59.0,11.28,-15.83,1555914091.0,70.0,297.64,1044.07,Bubaque,2019-04-22 06:21:31,GW,5.57,6.41
90.0,46.41,-105.84,1555914071.0,93.0,280.15,1034.85,Miles City,2019-04-22 06:21:11,US,23.73,3.1
1.0,34.26,-88.7,1555913911.0,82.0,286.15,1066.17,Tupelo,2019-04-22 06:18:31,US,2.06,1.64
40.0,47.92,106.92,1555912800.0,45.0,282.15,1039.06,Ulaanbaatar,2019-04-22 06:00:00,MN,6.76,9.0
41.0,-22.12,14.28,1555912927.0,93.0,285.93,1068.15,Henties Bay,2019-04-22 06:02:07,NA,9.82,1.34
1.0,42.03,-121.6,1555914008.0,70.0,281.15,1060.07,Merrill,2019-04-22 06:20:08,US,20.8,3.1
0.0,27.18,82.93,1555913861.0,23.0,308.84,1037.01,Bansi,2019-04-22 06:17:41,IN,3.13,5.17
20.0,28.66,-17.92,1555912800.0,77.0,289.15,1047.07,Los Llanos de Aridane,2019-04-22 06:00:00,ES,7.0,2.6
40.0,39.45,22.34,1555913604.0,87.0,285.93,1034.08,Saint George,2019-04-22 06:13:24,GR,3.36,1.51
0.0,59.7,30.79,1555913646.0,56.0,286.15,1031.27,Nikolskoye,2019-04-22 06:14:06,RU,13.87,5.0
33.0,5.4,125.46,1555914110.0,71.0,303.24,1069.05,Sarangani,2019-04-22 06:21:50,PH,9.78,4.86
0.0,61.81,51.56,1555911000.0,45.0,282.15,1079.31,Kortkeros,2019-04-22 05:30:00,RU,5.7,5.0
100.0,-1.75,-47.06,1555914113.0,98.0,296.34,1069.07,Capitao Poco,2019-04-22 06:21:53,BR,6.93,0.54
20.0,50.1,-91.92,1555912800.0,69.0,279.15,989.13,Sioux Lookout,2019-04-22 06:00:00,CA,13.13,1.5
96.0,71.64,128.87,1555914116.0,84.0,271.64,1040.27,Tiksi,2019-04-22 06:21:56,RU,3.36,3.5
74.0,10.49,-68.2,1555914118.0,89.0,296.34,1074.99,Moron,2019-04-22 06:21:58,VE,7.31,0.89
51.0,-35.1,173.78,1555913947.0,100.0,289.26,1062.93,Kaeo,2019-04-22 06:19:07,NZ,20.4,2.49
27.0,-30.97,22.13,1555914121.0,73.0,284.14,1085.97,Carnarvon,2019-04-22 06:22:01,ZA,4.74,10.61
100.0,7.53,-80.03,1555914122.0,70.0,298.94,1044.93,Pedasi,2019-04-22 06:22:02,PA,10.38,2.81
64.0,-2.02,147.27,1555914124.0,79.0,301.54,1032.33,Lorengau,2019-04-22 06:22:04,PG,16.04,0.92
1.0,39.94,-75.12,1555913922.0,93.0,286.48,1049.27,Camden,2019-04-22 06:18:42,US,9.17,3.02
100.0,-9.35,28.74,1555914127.0,94.0,293.54,1058.27,Nchelenge,2019-04-22 06:22:07,ZM,9.17,2.85
90.0,65.95,111.51,1555911000.0,58.0,269.15,1027.08,Aykhal,2019-04-22 05:30:00,RU,1.99,3.0
68.0,9.49,50.81,1555914131.0,61.0,302.64,1047.47,Bandarbeyla,2019-04-22 06:22:11,SO,8.05,4.39
19.0,-19.06,-169.92,1555909200.0,78.0,298.15,1025.87,Alofi,2019-04-22 05:00:00,NU,6.71,9.3
1.0,-32.03,-52.1,1555914123.0,87.0,285.34,1031.27,Rio Grande,2019-04-22 06:22:03,BR,13.87,1.4
0.0,-34.42,19.24,1555913825.0,94.0,290.93,1058.27,Hermanus,2019-04-22 06:17:05,ZA,2.24,3.13
0.0,43.27,-7.54,1555914008.0,100.0,283.71,983.91,Bereda,2019-04-22 06:20:08,ES,11.7,1.5
20.0,64.86,-147.8,1555914012.0,31.0,282.15,1034.08,College,2019-04-22 06:20:12,US,5.99,6.2
60.0,5.35,48.53,1555914140.0,67.0,303.14,1038.47,Hobyo,2019-04-22 06:22:20,SO,14.99,4.37
83.0,8.58,81.23,1555914142.0,43.0,308.84,1031.07,Trincomalee,2019-04-22 06:22:22,LK,2.39,2.55
75.0,28.97,50.84,1555909200.0,33.0,303.15,1065.99,Bushehr,2019-04-22 05:00:00,IR,26.24,3.1
100.0,69.38,178.42,1555914145.0,88.0,258.74,1079.87,Leningradskiy,2019-04-22 06:22:25,RU,6.93,5.87
75.0,-33.3,-66.34,1555910400.0,100.0,287.15,1050.15,San Luis,2019-04-22 05:20:00,AR,6.24,1.5
7.0,17.65,83.27,1555914148.0,51.0,306.44,1038.07,Yarada,2019-04-22 06:22:28,IN,3.24,3.27
67.0,43.61,122.27,1555914149.0,19.0,299.74,1071.75,Tongliao,2019-04-22 06:22:29,CN,6.98,9.12
2.0,20.27,81.49,1555914151.0,15.0,312.54,1074.09,Kanker,2019-04-22 06:22:31,IN,7.27,2.12
1.0,-33.69,-53.46,1555914152.0,71.0,289.74,1043.87,Chuy,2019-04-22 06:22:32,UY,2.24,4.64
74.0,50.52,115.13,1555914154.0,45.0,282.74,1036.67,Nizhniy Tsasuchey,2019-04-22 06:22:34,RU,10.29,7.17
75.0,13.97,-86.63,1555912800.0,82.0,292.15,1058.27,San Matias,2019-04-22 06:00:00,HN,6.93,4.1
33.0,-21.21,-159.78,1555911000.0,64.0,297.15,1021.17,Avarua,2019-04-22 05:30:00,CK,8.08,4.1
0.0,-38.31,-60.23,1555914160.0,87.0,282.04,1007.87,Barrow,2019-04-22 06:22:40,AR,6.93,0.64
100.0,40.83,-115.76,1555913986.0,83.0,279.82,993.47,Elko,2019-04-22 06:19:46,US,17.9,0.89
1.0,36.96,-120.06,1555914043.0,59.0,291.15,1025.87,Madera,2019-04-22 06:20:43,US,17.22,3.6
75.0,53.05,158.65,1555911000.0,56.0,279.15,1028.01,Petropavlovsk-Kamchatskiy,2019-04-22 05:30:00,RU,9.89,3.0
20.0,45.41,141.67,1555909200.0,71.0,282.15,1047.45,Wakkanai,2019-04-22 05:00:00,JP,7.36,6.2
75.0,4.94,-52.33,1555911000.0,94.0,297.15,1031.07,Cayenne,2019-04-22 05:30:00,GF,3.36,1.0
71.0,66.32,-179.17,1555914133.0,95.0,255.84,1082.73,Egvekinot,2019-04-22 06:22:13,RU,3.87,5.23
43.0,50.56,-96.99,1555914004.0,64.0,283.71,1065.63,Husavik,2019-04-22 06:20:04,CA,7.92,2.68
0.0,62.91,6.91,1555914000.0,54.0,286.15,1069.05,Bud,2019-04-22 06:20:00,NO,11.48,6.7
1.0,41.31,-81.44,1555914028.0,81.0,282.04,1056.63,Twinsburg,2019-04-22 06:20:28,US,15.73,1.07
100.0,3.07,172.79,1555914175.0,82.0,301.44,1068.33,Butaritari,2019-04-22 06:22:55,KI,11.32,11.73
0.0,28.58,77.04,1555911000.0,23.0,309.15,1018.83,Dwarka,2019-04-22 05:30:00,IN,6.82,3.1
4.0,-26.98,-56.83,1555914178.0,97.0,292.64,1012.71,San Patricio,2019-04-22 06:22:58,PY,4.38,2.79
38.0,-44.53,171.19,1555914032.0,93.0,285.93,1050.15,Saint Andrews,2019-04-22 06:20:32,NZ,6.02,1.45
83.0,7.42,81.82,1555914181.0,60.0,304.64,1059.51,Kalmunai,2019-04-22 06:23:01,LK,3.2,3.12
89.0,9.45,77.55,1555914182.0,42.0,305.94,1022.27,Rajapalaiyam,2019-04-22 06:23:02,IN,22.37,3.25
92.0,-22.45,18.97,1555909200.0,82.0,289.15,1058.27,Gobabis,2019-04-22 05:00:00,NA,4.7,1.0
1.0,43.87,-116.5,1555914155.0,57.0,285.15,1059.33,Emmett,2019-04-22 06:22:35,US,12.57,4.6
40.0,21.1,-87.49,1555914182.0,64.0,297.15,1040.27,Kantunilkin,2019-04-22 06:23:02,MX,8.05,3.1
40.0,47.63,-52.95,1555913918.0,81.0,285.37,1025.87,Wabana,2019-04-22 06:18:38,CA,10.29,13.4
100.0,47.85,-83.4,1555914191.0,90.0,276.54,1058.97,Chapleau,2019-04-22 06:23:11,CA,8.66,3.61
100.0,69.22,-51.1,1555912200.0,85.0,269.15,1035.93,Ilulissat,2019-04-22 05:50:00,GL,5.77,3.1
0.0,64.42,-173.23,1555909200.0,60.0,261.15,1069.59,Provideniya,2019-04-22 05:00:00,RU,4.36,8.0
90.0,54.32,-130.32,1555912800.0,87.0,279.15,1034.87,Prince Rupert,2019-04-22 06:00:00,CA,6.93,7.7
77.0,61.56,45.93,1555914197.0,71.0,280.34,1077.87,Krasnoborsk,2019-04-22 06:23:17,RU,11.25,4.42
0.0,-31.68,18.49,1555914198.0,66.0,291.14,1047.07,Vredendal,2019-04-22 06:23:18,ZA,21.92,3.29
1.0,40.97,-117.74,1555913781.0,60.0,282.04,1063.67,Winnemucca,2019-04-22 06:16:21,US,4.7,1.5
0.0,28.97,76.3,1555914201.0,17.0,310.74,1055.73,Maham,2019-04-22 06:23:21,IN,1.59,1.73
6.0,18.44,1.41,1555914203.0,14.0,301.24,1016.85,Kidal,2019-04-22 06:23:23,ML,2.98,3.54
88.0,3.78,72.97,1555914204.0,72.0,303.14,1013.27,Mahibadhoo,2019-04-22 06:23:24,MV,2.24,5.13
0.0,25.02,37.27,1555914206.0,43.0,296.24,1013.07,Umm Lajj,2019-04-22 06:23:26,SA,11.32,7.03
73.0,5.77,73.38,1555914066.0,71.0,302.74,1042.07,Manadhoo,2019-04-22 06:21:06,MV,10.29,5.06
100.0,59.44,112.57,1555914209.0,97.0,275.24,1028.19,Vitim,2019-04-22 06:23:29,RU,17.92,3.05
77.0,64.57,143.24,1555914210.0,73.0,271.84,1064.07,Ust-Nera,2019-04-22 06:23:30,RU,5.82,1.96
99.0,-11.3,-41.86,1555914212.0,97.0,292.64,1033.07,Irece,2019-04-22 06:23:32,BR,8.05,2.69
2.0,-17.73,-39.27,1555914213.0,89.0,297.84,1053.39,Caravelas,2019-04-22 06:23:33,BR,2.62,1.43
75.0,52.21,104.21,1555914018.0,60.0,277.15,1021.17,Markova,2019-04-22 06:20:18,RU,7.43,10.0
20.0,-5.81,-35.21,1555909200.0,94.0,297.15,1056.47,Natal,2019-04-22 05:00:00,BR,6.93,2.1
0.0,-29.67,17.88,1555914218.0,43.0,290.24,1078.07,Springbok,2019-04-22 06:23:38,ZA,10.29,2.94
0.0,40.29,97.04,1555914219.0,18.0,297.74,1064.73,Yumen,2019-04-22 06:23:39,CN,1.99,5.62
75.0,39.36,-9.38,1555914137.0,87.0,287.15,1004.27,Peniche,2019-04-22 06:22:17,PT,27.51,3.6
5.0,65.28,-126.83,1555912800.0,52.0,279.15,1068.51,Norman Wells,2019-04-22 06:00:00,CA,8.5,4.6
0.0,-22.97,-42.02,1555914224.0,81.0,297.54,1045.67,Arraial do Cabo,2019-04-22 06:23:44,BR,3.36,3.87
92.0,-29.41,-66.86,1555913842.0,94.0,284.74,1054.08,La Rioja,2019-04-22 06:17:22,AR,1.99,2.58
3.0,16.49,121.26,1555914229.0,39.0,303.44,1056.07,Quezon,2019-04-22 06:23:49,PH,1.01,1.95
0.0,54.59,-5.69,1555914060.0,87.0,284.15,1057.35,Newtownards,2019-04-22 06:21:00,GB,6.87,3.1
0.0,17.54,120.52,1555914233.0,47.0,308.04,1065.27,San Quintin,2019-04-22 06:23:53,PH,0.2,5.03
20.0,-34.04,18.35,1555914168.0,72.0,290.93,1056.45,Pondicherry,2019-04-22 06:22:48,ZA,2.08,9.8
40.0,-10.91,-37.04,1555909200.0,78.0,300.15,1063.67,Barra dos Coqueiros,2019-04-22 05:00:00,BR,4.7,2.1
82.0,-15.23,-59.33,1555914239.0,92.0,295.74,1041.06,Pontes e Lacerda,2019-04-22 06:23:59,BR,3.36,0.71
99.0,63.92,127.47,1555914241.0,90.0,274.14,1037.07,Sangar,2019-04-22 06:24:01,RU,4.47,1.33
90.0,55.74,-97.86,1555909200.0,92.0,272.15,1085.07,Thompson,2019-04-22 05:00:00,CA,6.8,1.0
98.0,66.77,123.37,1555914243.0,88.0,272.04,1069.07,Zhigansk,2019-04-22 06:24:03,RU,9.17,5.06
1.0,42.91,-85.79,1555914006.0,58.0,288.15,1040.27,Jenison,2019-04-22 06:20:06,US,3.36,4.6
89.0,50.67,113.59,1555914247.0,53.0,280.44,1033.07,Duldurga,2019-04-22 06:24:07,RU,3.6,8.01
75.0,-3.73,-38.66,1555914040.0,83.0,300.37,1074.47,Caucaia,2019-04-22 06:20:40,BR,10.29,2.6
75.0,38.27,39.76,1555912200.0,81.0,283.15,1037.73,Ergani,2019-04-22 05:50:00,TR,6.26,3.6
1.0,-18.86,-41.12,1555914251.0,95.0,294.44,1067.43,Mantenopolis,2019-04-22 06:24:11,BR,7.61,1.17
0.0,30.78,78.62,1555914254.0,87.0,276.54,1063.67,Lata,2019-04-22 06:24:14,IN,8.05,3.32
40.0,-17.88,36.89,1555912800.0,94.0,296.15,1069.41,Quelimane,2019-04-22 06:00:00,MZ,2.59,3.1
40.0,13.22,80.32,1555911232.0,59.0,308.15,1046.91,Kattivakkam,2019-04-22 05:33:52,IN,7.11,4.6
3.0,18.62,-100.35,1555914258.0,28.0,300.74,1020.47,Coahuayana,2019-04-22 06:24:18,MX,6.93,0.89
90.0,60.79,-161.76,1555910700.0,73.0,267.15,1050.87,Bethel,2019-04-22 05:25:00,US,3.22,12.3
89.0,4.14,96.13,1555914101.0,74.0,302.84,1010.37,Meulaboh,2019-04-22 06:21:41,ID,5.17,3.8
1.0,28.99,-80.9,1555914237.0,62.0,290.15,1039.06,Edgewater,2019-04-22 06:23:57,US,8.05,1.5
22.0,61.99,5.14,1555912200.0,58.0,285.15,1055.19,Raudeberg,2019-04-22 05:50:00,NO,10.78,4.1
0.0,16.97,-88.23,1555913830.0,74.0,294.82,987.69,Dangriga,2019-04-22 06:17:10,BZ,9.24,0.89
1.0,70.47,-68.59,1555912800.0,68.0,246.15,1018.67,Clyde River,2019-04-22 06:00:00,CA,3.36,2.1
100.0,26.85,-109.72,1555914261.0,81.0,295.93,1083.07,El Vigia,2019-04-22 06:24:21,MX,8.05,0.45
97.0,-13.13,39.0,1555914271.0,75.0,296.64,1040.27,Montepuez,2019-04-22 06:24:31,MZ,11.41,3.07
65.0,-3.66,152.44,1555914272.0,78.0,301.04,1058.27,Namatanai,2019-04-22 06:24:32,PG,2.24,0.09
78.0,-8.16,-70.77,1555914274.0,97.0,296.14,1010.73,Tarauaca,2019-04-22 06:24:34,BR,10.45,0.93
40.0,20.89,-156.47,1555913736.0,65.0,298.15,1013.43,Kahului,2019-04-22 06:15:36,US,7.78,5.7
75.0,-0.92,100.36,1555911000.0,88.0,300.15,1037.07,Padang,2019-04-22 05:30:00,ID,9.19,2.1
90.0,38.18,-1.13,1555914253.0,81.0,287.59,1037.07,Fortuna,2019-04-22 06:24:13,ES,2.24,1.5
0.0,50.28,29.52,1555913725.0,37.0,285.37,995.27,Brusyliv,2019-04-22 06:15:25,UA,6.71,2.0
2.0,17.31,97.01,1555914281.0,36.0,312.04,1038.47,Kyaikto,2019-04-22 06:24:41,MM,6.93,3.04
24.0,12.48,15.44,1555912800.0,13.0,303.15,1068.06,Massaguet,2019-04-22 06:00:00,TD,5.01,4.1
20.0,31.35,27.25,1555909200.0,71.0,287.15,1052.85,Marsa Matruh,2019-04-22 05:00:00,EG,1.16,1.5
1.0,33.19,-82.53,1555914232.0,100.0,283.15,1036.67,Avera,2019-04-22 06:23:52,US,6.71,1.61
20.0,11.67,92.75,1555909200.0,59.0,306.15,1042.07,Port Blair,2019-04-22 05:00:00,IN,24.27,4.6
36.0,45.32,55.19,1555914178.0,29.0,285.74,1020.63,Beyneu,2019-04-22 06:22:58,KZ,7.23,2.8
97.0,-2.67,141.3,1555914295.0,71.0,302.24,1018.08,Vanimo,2019-04-22 06:24:55,PG,10.29,3.4
9.0,-18.38,-66.97,1555914297.0,46.0,281.94,1022.27,Poopo,2019-04-22 06:24:57,BO,8.99,0.71
75.0,-17.73,-149.15,1555914183.0,78.0,300.15,1067.97,Tautira,2019-04-22 06:23:03,PF,9.33,3.6
49.0,-8.45,120.42,1555914300.0,61.0,303.34,1058.97,Latung,2019-04-22 06:25:00,ID,9.62,1.16
87.0,27.5,88.54,1555914302.0,31.0,290.84,1029.47,Mangan,2019-04-22 06:25:02,IN,11.41,3.18
0.0,63.84,-22.43,1555912800.0,93.0,276.15,1058.27,Grindavik,2019-04-22 06:00:00,IS,2.33,3.1
81.0,-6.29,145.87,1555914306.0,87.0,293.04,1078.77,Kainantu,2019-04-22 06:25:06,PG,3.06,1.44
92.0,69.3,139.9,1555914308.0,95.0,270.54,1055.73,Deputatskiy,2019-04-22 06:25:08,RU,2.15,2.31
0.0,51.6,-3.65,1555914306.0,71.0,286.48,1041.06,Maesteg,2019-04-22 06:25:06,GB,3.36,3.6
85.0,-6.44,-36.64,1555914312.0,85.0,295.44,1037.07,Acari,2019-04-22 06:25:12,BR,8.05,4.82
96.0,65.58,-170.99,1555914314.0,97.0,257.94,1029.47,Lavrentiya,2019-04-22 06:25:14,RU,4.7,4.13
75.0,58.81,-122.69,1555912800.0,55.0,275.15,1066.89,Fort Nelson,2019-04-22 06:00:00,CA,9.19,1.5
20.0,16.71,98.57,1555913754.0,52.0,310.93,1035.07,Mae Sot,2019-04-22 06:15:54,MM,8.05,3.6
40.0,39.09,17.12,1555912800.0,87.0,287.15,1041.15,Crotone,2019-04-22 06:00:00,IT,2.33,5.1
0.0,-6.97,-34.84,1555909200.0,94.0,297.15,1020.47,Cabedelo,2019-04-22 05:00:00,BR,3.36,1.0
90.0,64.25,-15.21,1555914325.0,92.0,270.74,1072.47,Hofn,2019-04-22 06:25:25,IS,8.81,4.67
96.0,60.14,-45.24,1555914327.0,80.0,272.24,1078.07,Nanortalik,2019-04-22 06:25:27,GL,12.75,3.48
0.0,-46.13,167.69,1555914006.0,86.0,285.37,1069.23,Tuatapere,2019-04-22 06:20:06,NZ,9.01,4.11
0.0,45.6,-0.6,1555914248.0,81.0,285.37,1056.27,Souillac,2019-04-22 06:24:08,FR,8.88,1.0
0.0,64.73,177.51,1555914188.0,78.0,262.15,1081.67,Anadyr,2019-04-22 06:23:08,RU,4.7,3.0
1.0,36.67,-121.66,1555914136.0,76.0,286.15,1018.67,Salinas,2019-04-22 06:22:16,US,13.87,3.1
96.0,8.0,124.29,1555913756.0,76.0,302.59,1053.07,Marawi,2019-04-22 06:15:56,PH,18.34,2.24
77.0,4.27,-54.38,1555914339.0,99.0,294.14,1043.08,Grand-Santi,2019-04-22 06:25:39,GF,17.22,0.52
90.0,-25.67,-48.51,1555914272.0,100.0,295.37,1074.47,Pontal do Parana,2019-04-22 06:24:32,BR,13.87,2.1
40.0,-31.97,141.45,1555909200.0,52.0,293.15,1060.95,Broken Hill,2019-04-22 05:00:00,AU,7.85,7.2
12.0,52.6,39.59,1555911000.0,40.0,285.15,1064.55,Lipetsk,2019-04-22 05:30:00,RU,10.25,3.0
75.0,38.73,-27.07,1555913724.0,93.0,288.15,1069.07,Praia da Vitoria,2019-04-22 06:15:24,PT,8.05,10.85
1.0,50.6,97.53,1555914349.0,20.0,276.24,1056.63,Kungurtug,2019-04-22 06:25:49,RU,1.88,3.23
20.0,36.66,137.31,1555914310.0,45.0,293.15,1029.09,Tateyama,2019-04-22 06:25:10,JP,11.68,5.1
75.0,60.55,-151.26,1555914125.0,81.0,274.82,1041.06,Kenai,2019-04-22 06:22:05,US,4.7,4.6
90.0,43.82,-111.79,1555913817.0,61.0,281.15,1059.06,Rexburg,2019-04-22 06:16:57,US,13.0,2.6
20.0,37.68,-113.06,1555913821.0,93.0,277.15,1052.31,Cedar City,2019-04-22 06:17:01,US,3.85,4.02
1.0,21.62,87.51,1555914362.0,73.0,302.54,1056.27,Digha,2019-04-22 06:26:02,IN,3.31,4.17
51.0,3.52,39.05,1555914365.0,78.0,297.54,1056.99,Moyale,2019-04-22 06:26:05,ET,22.84,4.3
40.0,43.11,144.15,1555912800.0,75.0,281.15,1037.37,Kushiro,2019-04-22 06:00:00,JP,7.49,5.1
40.0,16.86,-99.88,1555911780.0,94.0,297.15,1029.47,Acapulco,2019-04-22 05:43:00,MX,19.46,1.04
65.0,-2.54,115.51,1555914369.0,42.0,308.54,1057.53,Labuhan,2019-04-22 06:26:09,ID,1.32,1.37
93.0,-7.35,-75.01,1555914371.0,85.0,295.74,1014.33,Contamana,2019-04-22 06:26:11,PE,9.26,0.96
1.0,46.38,-120.31,1555914316.0,71.0,287.59,1029.47,Toppenish,2019-04-22 06:25:16,US,2.24,1.5
0.0,50.23,12.87,1555914364.0,50.0,285.37,1016.67,Carlsbad,2019-04-22 06:26:04,CZ,11.65,3.6
1.0,43.41,-124.22,1555914327.0,93.0,281.15,1042.41,North Bend,2019-04-22 06:25:27,US,16.84,2.1
75.0,42.3,-5.9,1555914229.0,93.0,280.93,1031.27,La Baneza,2019-04-22 06:23:49,ES,2.24,0.5
93.0,12.07,1.79,1555914378.0,40.0,306.24,1043.87,Diapaga,2019-04-22 06:26:18,BF,6.93,2.87
100.0,7.87,9.78,1555914379.0,68.0,301.94,1078.07,Wukari,2019-04-22 06:26:19,NG,9.17,4.11
75.0,40.8,-124.16,1555914207.0,87.0,284.26,1043.85,Eureka,2019-04-22 06:23:27,US,10.0,3.6
0.0,-26.5,17.16,1555914383.0,36.0,287.64,993.99,Bethanien,2019-04-22 06:26:23,NA,5.79,1.04
40.0,53.36,-104.02,1555912800.0,74.0,276.15,1023.33,Nipawin,2019-04-22 06:00:00,CA,28.79,1.5
30.0,9.19,117.81,1555914386.0,63.0,305.04,1049.27,Tagusao,2019-04-22 06:26:26,PH,1.32,3.94
75.0,-14.47,132.26,1555911000.0,28.0,308.15,1069.07,Katherine,2019-04-22 05:30:00,AU,10.29,5.7
66.0,-7.16,113.47,1555914388.0,75.0,303.24,1032.06,Pamekasan,2019-04-22 06:26:28,ID,2.71,4.03
90.0,37.46,-122.43,1555914379.0,93.0,285.93,1044.07,Half Moon Bay,2019-04-22 06:26:19,US,13.89,3.6
35.0,13.98,-14.8,1555914391.0,43.0,296.04,1056.07,Koungheul,2019-04-22 06:26:31,SN,8.01,3.97
75.0,-25.3,152.85,1555913709.0,57.0,300.15,1018.83,Hervey Bay,2019-04-22 06:15:09,AU,6.71,7.7
40.0,15.12,104.33,1555913517.0,53.0,310.15,1060.59,Si Sa Ket,2019-04-22 06:11:57,TH,3.71,2.1
20.0,68.22,-135.01,1555912800.0,59.0,275.15,1033.77,Aklavik,2019-04-22 06:00:00,CA,14.72,6.2
90.0,39.18,-96.57,1555914203.0,72.0,294.26,1036.08,Manhattan,2019-04-22 06:23:23,US,1.12,8.2
90.0,39.47,3.15,1555914373.0,93.0,288.71,1060.07,Felanitx,2019-04-22 06:26:13,ES,12.75,7.7
20.0,-7.35,109.91,1555911000.0,52.0,306.15,1079.08,Kalianget,2019-04-22 05:30:00,ID,13.87,6.2
64.0,9.35,-65.33,1555914405.0,78.0,298.64,1002.47,Zaraza,2019-04-22 06:26:45,VE,26.84,3.51
35.0,18.74,7.39,1555914406.0,10.0,300.64,1023.15,Arlit,2019-04-22 06:26:46,NE,11.27,4.58
1.0,45.52,-122.67,1555914185.0,71.0,284.26,1039.06,Portland,2019-04-22 06:23:05,US,5.82,1.59
75.0,7.04,134.26,1555912260.0,70.0,303.15,1049.61,Kloulklubed,2019-04-22 05:51:00,PW,4.68,3.6
94.0,-1.82,-44.87,1555914411.0,99.0,296.24,1016.87,Cururupu,2019-04-22 06:26:51,BR,2.24,0.84
10.0,51.71,143.23,1555914415.0,41.0,280.94,1064.07,Katangli,2019-04-22 06:26:55,RU,5.82,5.22
85.0,-26.53,153.09,1555914014.0,89.0,294.82,1041.06,Coolum Beach,2019-04-22 06:20:14,AU,5.82,3.48
38.0,-20.47,22.7,1555914418.0,76.0,293.34,1042.07,Sehithwa,2019-04-22 06:26:58,BW,8.05,3.2
0.0,51.92,4.46,1555914404.0,81.0,287.59,1060.07,Rotterdam,2019-04-22 06:26:44,NL,5.82,2.1
5.0,18.22,-63.06,1555913774.0,85.0,297.59,1059.06,The Valley,2019-04-22 06:16:14,AI,6.93,5.81
12.0,-11.1,-77.61,1555914422.0,95.0,293.34,1076.27,Hualmay,2019-04-22 06:27:02,PE,21.92,6.4
100.0,32.17,115.65,1555914425.0,85.0,293.84,1052.87,Gushi,2019-04-22 06:27:05,CN,16.11,1.72
1.0,38.15,-79.07,1555914379.0,81.0,284.82,1066.89,Staunton,2019-04-22 06:26:19,US,5.97,2.1
100.0,-9.01,-35.22,1555914428.0,90.0,296.04,1049.27,Maragogi,2019-04-22 06:27:08,BR,6.93,1.48
10.0,41.42,-6.55,1555914430.0,82.0,280.54,1050.06,Saldanha,2019-04-22 06:27:10,PT,5.01,1.58
28.0,42.73,124.72,1555914431.0,25.0,296.44,1029.81,Xifeng,2019-04-22 06:27:11,CN,26.73,10.21
3.0,-43.3,-65.11,1555914398.0,57.0,285.54,1057.17,Rawson,2019-04-22 06:26:38,AR,1.16,3.35
90.0,55.34,-131.65,1555913640.0,87.0,281.15,1056.47,Ketchikan,2019-04-22 06:14:00,US,1.12,8.7
100.0,-5.04,18.82,1555914436.0,84.0,296.74,1046.07,Kikwit,2019-04-22 06:27:16,CD,5.82,0.59
42.0,60.35,102.28,1555914439.0,66.0,272.74,1023.33,Vanavara,2019-04-22 06:27:19,RU,27.4,4.14
20.0,53.34,58.51,1555911000.0,39.0,281.15,1049.27,Askarovo,2019-04-22 05:30:00,RU,11.41,1.0
100.0,67.55,63.78,1555914442.0,100.0,274.04,1036.67,Komsomolskiy,2019-04-22 06:27:22,RU,4.7,5.21
100.0,27.97,-114.04,1555914444.0,84.0,288.34,1057.89,Guerrero Negro,2019-04-22 06:27:24,MX,0.4,7.53
20.0,53.14,59.15,1555912800.0,36.0,282.15,1017.57,Svetlogorsk,2019-04-22 06:00:00,RU,16.42,1.0
0.0,14.76,-90.99,1555913734.0,82.0,289.15,1053.07,Tecpan,2019-04-22 06:15:34,GT,9.17,3.1
75.0,15.46,120.92,1555912800.0,50.0,308.15,1053.07,Polillo,2019-04-22 06:00:00,PH,6.93,4.1
78.0,47.69,131.09,1555914450.0,14.0,289.14,1033.07,Amurzet,2019-04-22 06:27:30,CN,2.24,4.47
95.0,71.98,102.47,1555914451.0,87.0,261.44,1039.06,Khatanga,2019-04-22 06:27:31,RU,9.17,2.59
62.0,70.63,29.72,1555914453.0,82.0,277.74,1006.23,Batsfjord,2019-04-22 06:27:33,NO,8.99,12.87
40.0,22.73,-105.85,1555911600.0,88.0,292.15,1035.07,Isla del Bosque,2019-04-22 05:40:00,MX,12.75,0.59
40.0,17.01,54.1,1555912200.0,62.0,303.15,1055.37,Salalah,2019-04-22 05:50:00,OM,7.47,4.6
1.0,47.77,-116.79,1555914448.0,75.0,282.59,1038.47,Hayden,2019-04-22 06:27:28,US,3.36,1.21
53.0,-35.17,173.16,1555914247.0,100.0,289.26,1079.87,Ahipara,2019-04-22 06:24:07,NZ,12.75,6.21
100.0,28.39,-105.62,1555914335.0,21.0,295.93,1056.27,Lazaro Cardenas,2019-04-22 06:25:35,MX,3.31,3.58
20.0,-7.54,112.45,1555912800.0,70.0,304.15,1045.67,Puri,2019-04-22 06:00:00,ID,8.95,6.2
99.0,61.28,108.01,1555914466.0,79.0,275.24,1031.27,Yerbogachen,2019-04-22 06:27:46,RU,11.41,3.0
70.0,10.74,-11.11,1555914468.0,45.0,298.44,1062.07,Dabola,2019-04-22 06:27:48,GN,16.11,1.66
47.0,54.63,-8.45,1555914469.0,73.0,283.54,1085.61,Killybegs,2019-04-22 06:27:49,IE,11.12,6.58
0.0,47.9,8.17,1555914470.0,93.0,284.82,1033.07,Titisee-Neustadt,2019-04-22 06:27:50,DE,6.93,0.5
0.0,41.72,-8.86,1555914424.0,87.0,285.93,1068.33,Areosa,2019-04-22 06:27:04,PT,9.17,4.1
0.0,-25.24,130.99,1555912800.0,27.0,298.15,1033.07,Yulara,2019-04-22 06:00:00,AU,9.17,5.7
20.0,14.67,121.6,1555914035.0,47.0,308.71,1068.51,Real,2019-04-22 06:20:35,PH,11.23,6.2
75.0,69.49,88.39,1555912800.0,92.0,266.15,1038.47,Talnakh,2019-04-22 06:00:00,RU,16.11,12.0
82.0,50.1,139.13,1555914478.0,36.0,277.64,1047.07,Vysokogornyy,2019-04-22 06:27:58,RU,8.05,5.04
90.0,46.17,-62.65,1555914324.0,100.0,286.48,1030.89,Montague,2019-04-22 06:25:24,CA,2.46,2.6
1.0,35.54,106.68,1555914481.0,39.0,292.34,1074.47,Pingliang,2019-04-22 06:28:01,CN,13.87,2.09
97.0,60.91,-46.05,1555912200.0,74.0,274.15,1027.67,Narsaq,2019-04-22 05:50:00,GL,4.7,1.0
40.0,15.13,-23.22,1555912800.0,73.0,294.15,1033.07,Vila do Maio,2019-04-22 06:00:00,CV,5.82,7.2
20.0,14.29,120.72,1555914035.0,47.0,308.71,1042.07,Ternate,2019-04-22 06:20:35,PH,10.29,6.2
75.0,-3.71,-38.6,1555914040.0,83.0,300.37,1059.06,Vila Velha,2019-04-22 06:20:40,BR,2.48,2.6
40.0,37.51,22.37,1555914424.0,81.0,287.59,1052.67,Tripoli,2019-04-22 06:27:04,GR,1.39,2.6
20.0,37.72,23.95,1555914308.0,62.0,288.15,1075.35,Palaia Fokaia,2019-04-22 06:25:08,GR,8.75,3.6
75.0,-19.55,169.27,1555912800.0,94.0,298.15,1052.67,Isangel,2019-04-22 06:00:00,VU,2.35,2.6
40.0,19.55,-71.08,1555914339.0,94.0,297.59,1035.07,Mao,2019-04-22 06:25:39,DO,2.24,3.1
20.0,-10.16,123.6,1555912800.0,44.0,307.15,1063.08,Kupang,2019-04-22 06:00:00,ID,2.24,9.8
82.0,6.07,-8.13,1555914500.0,99.0,295.94,1038.47,Zwedru,2019-04-22 06:28:20,LR,8.05,0.99
1.0,37.04,-95.62,1555914459.0,52.0,294.15,1040.79,Coffeyville,2019-04-22 06:27:39,US,8.37,7.2
100.0,-16.48,-151.75,1555914503.0,74.0,301.94,1038.99,Faanui,2019-04-22 06:28:23,PF,2.73,2.67
75.0,-26.5,31.37,1555912800.0,82.0,292.15,1049.25,Manzini,2019-04-22 06:00:00,SZ,5.28,3.1
51.0,-35.71,150.18,1555914256.0,84.0,292.59,1062.75,Batemans Bay,2019-04-22 06:24:16,AU,2.66,2.24
99.0,48.65,-53.11,1555914508.0,90.0,281.34,1031.07,Bonavista,2019-04-22 06:28:28,CA,16.89,11.95
100.0,-9.91,-63.03,1555914510.0,96.0,296.54,1035.07,Ariquemes,2019-04-22 06:28:30,BR,5.82,0.52
0.0,13.27,-88.55,1555912200.0,69.0,296.15,1074.47,Puerto El Triunfo,2019-04-22 05:50:00,SV,11.41,0.5
1.0,33.27,-93.24,1555914172.0,67.0,290.37,1056.81,Magnolia,2019-04-22 06:22:52,US,4.85,2.6
0.0,63.87,11.3,1555914317.0,81.0,282.15,1072.65,Straumen,2019-04-22 06:25:17,NO,3.87,2.1
28.0,70.86,29.09,1555914516.0,81.0,277.74,1033.07,Berlevag,2019-04-22 06:28:36,NO,0.11,12.25
20.0,24.15,-110.32,1555913827.0,68.0,292.15,1027.08,La Paz,2019-04-22 06:17:07,MX,0.87,5.1
90.0,-36.72,-73.12,1555912800.0,87.0,285.15,1084.35,Talcahuano,2019-04-22 06:00:00,CL,6.02,2.1
97.0,-4.67,-73.52,1555914521.0,91.0,296.94,1067.61,Saquena,2019-04-22 06:28:41,PE,5.75,0.18
100.0,66.83,70.83,1555914522.0,100.0,274.54,1022.97,Yar-Sale,2019-04-22 06:28:42,RU,12.66,7.34
0.0,-34.6,138.75,1555914519.0,42.0,294.26,1049.27,Gawler,2019-04-22 06:28:39,AU,3.36,4.1
5.0,32.55,-115.28,1555914493.0,30.0,294.26,1045.67,Sinaloa,2019-04-22 06:28:13,MX,8.01,3.1
20.0,41.28,20.71,1555912800.0,76.0,283.15,1047.47,Poum,2019-04-22 06:00:00,MK,10.29,1.0
0.0,52.12,9.98,1555914517.0,61.0,286.48,1040.07,Marienburg,2019-04-22 06:28:37,DE,4.34,4.1
100.0,73.51,80.55,1555914534.0,92.0,268.24,1040.07,Dikson,2019-04-22 06:28:54,RU,5.82,4.02
71.0,-2.57,150.8,1555914538.0,67.0,302.84,,Kavieng,2019-04-22 06:28:58,PG,,2.34
90.0,44.65,-63.58,1555914337.0,100.0,284.26,,Halifax,2019-04-22 06:25:37,CA,,5.7
0.0,39.73,98.49,1555914541.0,21.0,295.54,,Jiuquan,2019-04-22 06:29:01,CN,,3.34
1.0,39.62,-77.74,1555914427.0,66.0,286.15,,Vardo,2019-04-22 06:27:07,US,,1.5
23.0,-15.77,128.74,1555912800.0,23.0,309.15,,Kununurra,2019-04-22 06:00:00,AU,,5.7
100.0,-8.9,-35.15,1555914545.0,90.0,296.04,,Sao Jose da Coroa Grande,2019-04-22 06:29:05,BR,,1.48
90.0,30.93,113.57,1555912800.0,93.0,290.15,,Yingcheng,2019-04-22 06:00:00,CN,,4.0
75.0,26.96,56.27,1555912800.0,38.0,307.15,,Qeshm,2019-04-22 06:00:00,IR,,2.1
40.0,51.55,-9.27,1555912800.0,93.0,282.15,,Skibbereen,2019-04-22 06:00:00,IE,,5.1
40.0,-35.36,150.48,1555913890.0,78.0,299.26,,Ulladulla,2019-04-22 06:18:10,AU,,7.2
0.0,26.93,71.92,1555914553.0,13.0,312.34,,Pokaran,2019-04-22 06:29:13,IN,,4.97
5.0,53.23,-0.54,1555914430.0,81.0,283.15,,Lincoln,2019-04-22 06:27:10,GB,,3.1
77.0,7.98,49.82,1555914557.0,62.0,302.74,,Eyl,2019-04-22 06:29:17,SO,,4.1
0.0,61.12,27.27,1555914355.0,65.0,283.15,,Tornio,2019-04-22 06:25:55,FI,,4.1
57.0,5.1,73.07,1555914560.0,70.0,302.84,,Eydhafushi,2019-04-22 06:29:20,MV,,5.02
1.0,40.24,-100.42,1555913824.0,76.0,286.15,,Indianola,2019-04-22 06:17:04,US,,7.2
34.0,-41.43,147.14,1555914315.0,51.0,290.93,,Launceston,2019-04-22 06:25:15,AU,,3.6
0.0,-45.41,167.72,1555914567.0,83.0,281.94,,Te Anau,2019-04-22 06:29:27,NZ,,1.1
40.0,8.73,76.71,1555912800.0,63.0,306.15,,Varkkallai,2019-04-22 06:00:00,IN,,6.2
90.0,50.7,-127.42,1555912800.0,87.0,280.15,,Port Hardy,2019-04-22 06:00:00,CA,,2.1
0.0,-29.95,-71.34,1555912800.0,87.0,283.15,,Coquimbo,2019-04-22 06:00:00,CL,,2.6
83.0,44.5,38.13,1555914573.0,66.0,282.14,,Divnomorskoye,2019-04-22 06:29:33,RU,,6.8
40.0,30.42,-9.58,1555912800.0,87.0,288.15,,Agadir,2019-04-22 06:00:00,MA,,4.6
75.0,35.74,139.53,1555914375.0,44.0,300.37,,Nishihara,2019-04-22 06:26:15,JP,,4.1
0.0,15.74,-96.47,1555913758.0,71.0,297.59,,Pochutla,2019-04-22 06:15:58,MX,,1.11
0.0,16.38,-93.6,1555914582.0,72.0,294.04,,Champerico,2019-04-22 06:29:42,MX,,0.62
19.0,-20.74,116.85,1555914583.0,9.0,306.64,,Karratha,2019-04-22 06:29:43,AU,,3.91
100.0,6.39,10.08,1555914585.0,80.0,294.04,,Wum,2019-04-22 06:29:45,CM,,1.05
0.0,54.08,-0.19,1555914315.0,93.0,284.26,,Bridlington,2019-04-22 06:25:15,GB,,1.0
20.0,33.63,130.94,1555914325.0,38.0,299.82,,Miyako,2019-04-22 06:25:25,JP,,1.0
40.0,36.97,-122.03,1555914317.0,76.0,286.15,,Santa Cruz,2019-04-22 06:25:17,US,,3.6
0.0,41.19,61.4,1555914595.0,33.0,287.44,,Gazojak,2019-04-22 06:29:55,TM,,3.74
0.0,-24.83,16.98,1555914597.0,42.0,286.44,,Maltahohe,2019-04-22 06:29:57,NA,,1.22
100.0,10.46,-73.25,1555914598.0,74.0,292.14,,Valledupar,2019-04-22 06:29:58,CO,,2.36
0.0,25.6,86.94,1555914600.0,28.0,308.64,,Gopalpur,2019-04-22 06:30:00,IN,,3.79
64.0,-3.36,135.5,1555914602.0,91.0,299.64,,Nabire,2019-04-22 06:30:02,ID,,1.19
100.0,48.94,-125.55,1555914471.0,86.0,282.04,,Ucluelet,2019-04-22 06:27:51,CA,,7.55
0.0,58.89,5.65,1555914604.0,53.0,284.26,,Sola,2019-04-22 06:30:04,NO,,2.6
20.0,6.87,101.37,1555912800.0,66.0,306.15,,Yaring,2019-04-22 06:00:00,TH,,5.1
91.0,-2.63,33.98,1555914611.0,70.0,296.34,,Nyakabindi,2019-04-22 06:30:11,TZ,,2.17
66.0,27.93,96.16,1555914615.0,27.0,305.14,,Tezu,2019-04-22 06:30:15,IN,,1.73
90.0,39.27,-81.55,1555914525.0,81.0,283.15,,Parkersburg,2019-04-22 06:28:45,US,,0.05
1.0,48.2,-114.32,1555914605.0,75.0,279.82,,Kalispell,2019-04-22 06:30:05,US,,0.39
99.0,22.57,95.7,1555914622.0,16.0,311.64,,Shwebo,2019-04-22 06:30:22,MM,,2.69
84.0,-3.15,142.36,1555914623.0,68.0,302.34,,Aitape,2019-04-22 06:30:23,PG,,2.57
100.0,65.4,64.7,1555914625.0,94.0,277.54,,Muzhi,2019-04-22 06:30:25,RU,,5.66
75.0,5.42,-75.7,1555909200.0,100.0,292.15,,Riosucio,2019-04-22 05:00:00,CO,,1.5
40.0,16.06,-61.77,1555912800.0,94.0,295.15,,Vieux-Habitants,2019-04-22 06:00:00,GP,,4.19
100.0,28.66,-106.08,1555914335.0,23.0,295.93,,Chihuahua,2019-04-22 06:25:35,MX,,7.16
0.0,25.7,32.65,1555909200.0,42.0,290.15,,Luxor,2019-04-22 05:00:00,EG,,3.58
20.0,28.5,-13.86,1555912800.0,72.0,291.15,,Puerto del Rosario,2019-04-22 06:00:00,ES,,4.6
1.0,32.36,-89.47,1555914344.0,82.0,287.04,,Forest,2019-04-22 06:25:44,US,,1.94
41.0,57.8,158.67,1555914635.0,68.0,275.64,,Tigil,2019-04-22 06:30:35,RU,,2.11
90.0,45.62,-61.99,1555914483.0,93.0,287.04,,Antigonish,2019-04-22 06:28:03,CA,,2.6
5.0,22.89,-109.91,1555914352.0,50.0,297.15,,Cabo San Lucas,2019-04-22 06:25:52,MX,,5.13
