% Cloudiness,Latitude,Longitude,Date (Polished),Date (Raw),% Humidity,Max. Temp. (F),Max. Temp. (K),City,Country,Wind Speed (MPH),Wind Speed (M/s)
0.0,50.56,-96.99,2019-03-30 03:10:35,1553915435.0,54.0,1006.07,268.15,Husavik,CA,10.0,4.47
68.0,-21.21,-159.78,2019-03-30 02:30:00,1553913000.0,94.0,1058.27,297.15,Avarua,CK,6.93,3.1
75.0,19.71,-155.08,2019-03-30 03:11:14,1553915474.0,61.0,1061.87,299.15,Hilo,US,6.93,3.1
92.0,-23.12,-134.97,2019-03-30 03:12:09,1553915529.0,93.0,1064.01,300.34,Rikitea,PF,23.49,10.5
75.0,78.22,15.63,2019-03-30 01:50:00,1553910600.0,73.0,1006.07,268.15,Longyearbyen,NO,6.93,3.1
64.0,-33.69,-53.46,2019-03-30 03:12:12,1553915532.0,80.0,1053.75,294.64,Chuy,UY,16.22,7.25
0.0,-46.19,168.86,2019-03-30 03:10:06,1553915406.0,76.0,1050.06,292.59,Mataura,NZ,1.01,0.45
1.0,36.73,-76.58,2019-03-30 03:12:03,1553915523.0,47.0,1029.45,291.15,Suffolk,US,4.14,3.6
12.0,8.96,38.73,2019-03-30 03:12:18,1553915538.0,85.0,1066.08,281.14,Lebu,ET,8.16,1.85
20.0,-2.02,147.27,2019-03-30 03:12:19,1553915539.0,100.0,1024.07,301.49,Lorengau,PG,2.24,3.65
90.0,51.04,-4.21,2019-03-30 03:12:14,1553915534.0,100.0,1022.27,278.15,Northam,GB,3.36,1.0
75.0,41.02,40.52,2019-03-30 02:50:00,1553914200.0,86.0,1043.4,277.15,Rize,TR,12.42,1.5
0.0,-46.43,-67.52,2019-03-30 03:12:24,1553915544.0,56.0,1059.06,288.89,Mar del Plata,AR,4.7,5.55
20.0,-20.34,57.76,2019-03-30 03:09:03,1553915343.0,88.0,1070.87,297.59,Bambous Virieux,MU,10.29,2.1
75.0,-17.53,-149.33,2019-03-30 03:02:22,1553914942.0,62.0,1025.87,304.15,Tiarei,PF,4.7,4.6
40.0,-54.81,-68.31,2019-03-30 02:00:00,1553911200.0,81.0,1029.18,279.15,Ushuaia,AR,2.35,2.1
92.0,38.52,-28.7,2019-03-30 03:12:32,1553915552.0,100.0,1005.6,288.99,Ribeira Grande,PT,27.29,4.75
24.0,14.4,46.47,2019-03-30 03:12:35,1553915555.0,81.0,999.57,280.99,Marzuq,YE,7.72,1.05
0.0,-38.31,-60.23,2019-03-30 03:12:37,1553915557.0,76.0,1018.11,293.39,Barrow,AR,2.91,6.2
56.0,73.51,80.55,2019-03-30 03:12:38,1553915558.0,97.0,1015.07,267.89,Dikson,RU,16.11,12.2
90.0,41.53,-109.47,2019-03-30 03:00:20,1553914820.0,92.0,1062.07,271.48,Green River,US,5.99,3.6
12.0,71.97,114.09,2019-03-30 03:12:41,1553915561.0,85.0,1054.67,264.54,Saskylakh,RU,9.17,3.45
32.0,47.83,88.13,2019-03-30 03:12:44,1553915564.0,62.0,1055.64,274.84,Altay,CN,6.04,1.3
90.0,47.66,-52.73,2019-03-30 03:07:39,1553915259.0,92.0,1016.31,273.15,Torbay,CA,15.66,7.2
20.0,-0.74,-90.35,2019-03-30 03:01:24,1553914884.0,86.0,1033.07,299.26,Puerto Ayora,EC,10.29,2.68
75.0,-7.84,-79.15,2019-03-30 02:00:00,1553911200.0,83.0,1020.47,295.15,Chicama,PE,1.12,4.1
75.0,5.42,100.33,2019-03-30 02:30:00,1553913000.0,70.0,1063.38,304.15,George Town,MY,17.0,1.5
36.0,25.52,90.21,2019-03-30 03:12:52,1553915572.0,87.0,1002.0,295.69,Tura,IN,4.03,2.7
88.0,64.42,-173.23,2019-03-30 03:12:53,1553915573.0,93.0,1043.87,273.84,Provideniya,RU,2.24,7.0
40.0,-53.16,-70.91,2019-03-30 03:02:26,1553914946.0,76.0,1014.33,283.15,Punta Arenas,CL,10.96,4.6
0.0,40.57,9.69,2019-03-30 02:50:00,1553914200.0,93.0,1065.99,276.15,Siniscola,IT,13.98,0.5
0.0,11.28,-15.83,2019-03-30 03:12:59,1553915579.0,94.0,1048.06,299.99,Bubaque,GW,2.57,7.6
64.0,69.3,139.9,2019-03-30 03:13:01,1553915581.0,82.0,1050.15,265.89,Deputatskiy,RU,9.62,1.8
92.0,-34.53,20.04,2019-03-30 03:00:45,1553914845.0,87.0,1047.47,289.15,Bredasdorp,ZA,5.82,1.0
20.0,10.24,-61.45,2019-03-30 03:10:08,1553915408.0,88.0,1029.47,299.26,Esperance,TT,5.82,3.1
68.0,59.95,56.29,2019-03-30 03:13:05,1553915585.0,93.0,1007.87,272.74,Kerchevskiy,RU,9.17,4.9
48.0,-9.8,-139.03,2019-03-30 03:13:04,1553915584.0,99.0,1059.06,301.44,Atuona,PF,1.45,6.25
44.0,-34.42,19.24,2019-03-30 03:02:46,1553914966.0,96.0,1060.07,291.48,Hermanus,ZA,26.4,1.15
0.0,-33.59,26.89,2019-03-30 03:13:11,1553915591.0,94.0,1021.53,292.64,Port Alfred,ZA,33.89,4.3
1.0,36.42,-89.06,2019-03-30 03:07:33,1553915253.0,72.0,974.64,291.15,Union City,US,9.62,2.6
90.0,42.65,-73.75,2019-03-30 03:10:29,1553915429.0,70.0,1046.37,281.15,Albany,US,1.79,2.6
56.0,69.22,-51.1,2019-03-30 01:50:00,1553910600.0,49.0,1000.74,269.15,Ilulissat,GL,9.62,4.1
92.0,-23.58,149.07,2019-03-30 03:13:12,1553915592.0,98.0,1040.27,297.19,Bluff,AU,17.22,3.9
12.0,22.57,59.53,2019-03-30 03:13:03,1553915583.0,89.0,1047.07,297.59,Sur,OM,14.99,0.65
75.0,-34.58,150.85,2019-03-30 03:10:06,1553915406.0,64.0,1016.87,298.15,Flinders,AU,6.93,11.8
20.0,67.67,12.69,2019-03-30 03:13:23,1553915603.0,100.0,1058.43,276.74,Sorland,NO,5.59,15.15
44.0,77.48,-69.36,2019-03-30 03:13:24,1553915604.0,78.0,1060.68,250.69,Qaanaaq,GL,7.05,4.3
0.0,27.88,102.25,2019-03-30 03:13:26,1553915606.0,32.0,1057.53,290.54,Xichang,CN,9.62,0.8
88.0,66.0,57.56,2019-03-30 03:13:27,1553915607.0,92.0,1042.07,272.39,Usinsk,RU,12.75,7.3
36.0,53.19,44.05,2019-03-30 03:13:29,1553915609.0,80.0,1058.27,265.19,Kamenka,RU,13.87,4.3
75.0,-37.83,140.78,2019-03-30 02:00:00,1553911200.0,50.0,1002.47,287.15,Mount Gambier,AU,4.7,7.7
75.0,33.93,134.5,2019-03-30 03:04:25,1553915065.0,67.0,1009.74,290.93,Katsuura,JP,3.69,6.7
0.0,45.29,18.06,2019-03-30 02:30:00,1553913000.0,74.0,1041.78,274.15,Paka,HR,23.49,3.1
92.0,-23.87,35.38,2019-03-30 03:13:36,1553915616.0,100.0,1061.87,297.24,Inhambane,MZ,4.7,2.5
0.0,10.18,-14.04,2019-03-30 03:13:38,1553915618.0,80.0,1049.7,298.49,Boffa,GN,3.36,3.15
12.0,18.65,-74.12,2019-03-30 03:12:05,1553915525.0,100.0,1055.55,296.74,Jeremie,HT,1.34,4.3
0.0,37.14,-8.45,2019-03-30 03:12:10,1553915530.0,72.0,1052.87,288.15,Lagoa,PT,2.57,5.7
90.0,22.08,-159.32,2019-03-30 03:13:14,1553915594.0,56.0,1066.71,297.15,Kapaa,US,22.48,6.2
64.0,65.61,-37.64,2019-03-30 01:50:00,1553910600.0,57.0,1045.11,266.15,Tasiilaq,GL,7.72,2.1
68.0,62.16,117.65,2019-03-30 03:13:48,1553915628.0,78.0,1072.67,270.19,Suntar,RU,6.93,1.65
88.0,-21.64,-41.05,2019-03-30 03:13:49,1553915629.0,100.0,1053.12,295.99,Sao Joao da Barra,BR,19.01,5.4
48.0,32.12,20.07,2019-03-30 03:13:51,1553915631.0,100.0,1061.87,287.99,Benghazi,LY,14.99,10.5
75.0,-5.81,-35.21,2019-03-30 03:00:00,1553914800.0,98.0,1045.08,299.15,Natal,BR,14.99,2.1
0.0,11.04,20.28,2019-03-30 03:13:54,1553915634.0,43.0,1044.3,292.39,Am Timan,TD,13.42,1.5
80.0,65.61,72.68,2019-03-30 03:13:55,1553915635.0,96.0,1022.43,272.54,Staryy Nadym,RU,2.35,5.25
8.0,22.48,103.95,2019-03-30 03:13:57,1553915637.0,76.0,1051.05,295.64,Lao Cai,VN,2.8,0.6
0.0,15.34,74.49,2019-03-30 02:00:00,1553911200.0,94.0,1025.87,294.15,Vaini,IN,17.22,1.15
80.0,26.54,-78.7,2019-03-30 03:14:00,1553915640.0,100.0,1045.2,294.99,Freeport,BS,12.19,5.9
88.0,3.07,172.79,2019-03-30 03:14:01,1553915641.0,100.0,1041.06,301.84,Butaritari,KI,5.82,10.05
0.0,-14.44,28.44,2019-03-30 03:14:04,1553915644.0,70.0,1015.32,289.84,Kabwe,ZM,17.67,3.45
75.0,5.28,115.24,2019-03-30 02:30:00,1553913000.0,79.0,994.89,305.15,Victoria,BN,12.64,3.1
0.0,14.9,-24.5,2019-03-30 03:14:08,1553915648.0,99.0,1063.67,294.29,Sao Filipe,CV,4.7,8.5
40.0,13.22,-59.52,2019-03-30 02:00:00,1553911200.0,78.0,1054.67,299.15,Bathsheba,BB,8.05,6.7
75.0,-42.88,147.33,2019-03-30 03:12:15,1553915535.0,38.0,1057.53,289.82,Hobart,AU,6.6,6.7
0.0,-34.0,24.73,2019-03-30 03:13:47,1553915627.0,84.0,1020.47,289.39,Kruisfontein,ZA,17.22,6.0
20.0,50.27,85.62,2019-03-30 03:14:17,1553915657.0,87.0,1057.17,277.24,Ust-Koksa,RU,5.14,1.05
20.0,-25.17,45.06,2019-03-30 03:14:18,1553915658.0,90.0,1007.67,293.14,Beloha,MG,11.97,1.25
90.0,39.95,-94.76,2019-03-30 03:12:02,1553915522.0,100.0,1057.71,279.15,Kodiak,US,3.13,7.7
68.0,-26.65,15.16,2019-03-30 03:14:21,1553915661.0,88.0,1046.46,289.89,Luderitz,NA,15.21,5.45
90.0,37.95,-91.77,2019-03-30 03:11:23,1553915483.0,100.0,1025.13,287.59,Rolla,US,8.39,2.6
90.0,-23.53,148.16,2019-03-30 03:13:36,1553915616.0,74.0,1059.33,300.37,Emerald,AU,2.57,3.6
32.0,47.17,-55.16,2019-03-30 03:14:27,1553915667.0,95.0,1045.08,273.29,Marystown,CA,14.99,7.9
80.0,69.38,178.42,2019-03-30 03:14:28,1553915668.0,99.0,991.47,261.94,Leningradskiy,RU,9.4,5.65
32.0,-19.06,-169.92,2019-03-30 02:00:00,1553911200.0,88.0,1011.47,300.15,Alofi,NU,2.24,2.1
40.0,23.15,-81.92,2019-03-30 03:12:21,1553915541.0,77.0,1055.46,295.15,Santa Cruz del Norte,CU,13.76,3.6
92.0,-13.19,49.05,2019-03-30 03:14:34,1553915674.0,100.0,1066.35,294.54,Ambilobe,MG,3.58,1.95
88.0,-22.97,-42.02,2019-03-30 03:14:36,1553915676.0,100.0,1030.53,296.74,Arraial do Cabo,BR,2.8,2.95
90.0,49.18,-57.43,2019-03-30 03:00:00,1553914800.0,96.0,1057.06,276.15,Deer Lake,CA,12.64,7.7
8.0,-4.58,-81.27,2019-03-30 03:14:39,1553915679.0,76.0,1053.93,296.54,Talara,PE,9.06,2.3
88.0,71.98,102.47,2019-03-30 03:14:40,1553915680.0,89.0,1027.08,269.04,Khatanga,RU,3.58,5.35
76.0,-2.76,-42.27,2019-03-30 03:14:43,1553915683.0,100.0,1026.07,296.84,Tutoia,BR,1.12,1.4
0.0,-33.21,138.6,2019-03-30 03:13:01,1553915581.0,40.0,1010.07,290.59,Jamestown,AU,2.24,6.8
64.0,46.84,74.98,2019-03-30 03:10:37,1553915437.0,77.0,1050.69,278.74,Balkhash,KZ,3.58,3.75
56.0,0.57,122.3,2019-03-30 03:14:48,1553915688.0,83.0,1052.87,301.39,Lamu,ID,2.24,0.95
64.0,1.74,98.78,2019-03-30 03:14:49,1553915689.0,93.0,1045.67,297.74,Sibolga,ID,5.82,1.15
75.0,-42.78,147.06,2019-03-30 03:14:15,1553915655.0,38.0,1021.06,289.82,New Norfolk,AU,8.95,6.7
12.0,72.79,-56.15,2019-03-30 03:14:52,1553915692.0,93.0,1048.17,260.04,Upernavik,GL,7.27,4.2
40.0,55.1,-105.3,2019-03-30 02:00:00,1553911200.0,50.0,1013.27,271.15,La Ronge,CA,5.82,1.0
1.0,45.36,-73.48,2019-03-30 03:14:35,1553915675.0,92.0,1051.07,275.15,Saint-Philippe,CA,6.93,3.25
100.0,25.34,30.55,2019-03-30 03:14:59,1553915699.0,30.0,1028.1,295.59,Port Said,EG,1.68,6.15
12.0,-0.6,73.08,2019-03-30 03:15:01,1553915701.0,100.0,993.47,301.64,Hithadhoo,MV,6.93,1.6
0.0,-30.97,22.13,2019-03-30 03:15:03,1553915703.0,42.0,1045.38,281.74,Carnarvon,ZA,15.43,1.25
0.0,-33.64,115.35,2019-03-30 03:14:36,1553915676.0,27.0,1052.31,296.48,Busselton,AU,8.95,5.65
76.0,-20.63,-46.0,2019-03-30 03:15:07,1553915707.0,65.0,1060.68,294.74,Ponta do Sol,BR,8.72,4.05
20.0,39.45,22.34,2019-03-30 03:13:18,1553915598.0,93.0,1004.07,279.82,Saint George,GR,5.82,1.6
40.0,-0.92,100.36,2019-03-30 02:00:00,1553911200.0,74.0,1060.05,302.15,Padang,ID,1.9,1.5
0.0,52.47,1.45,2019-03-30 03:15:03,1553915703.0,93.0,1066.53,279.26,Broome,GB,5.03,0.5
90.0,62.45,-114.38,2019-03-30 03:13:17,1553915597.0,73.0,1042.07,270.37,Yellowknife,CA,7.61,1.0
0.0,9.67,8.4,2019-03-30 03:15:15,1553915715.0,61.0,1029.47,292.94,Matagami,NG,6.93,1.6
0.0,-28.46,21.24,2019-03-30 02:00:00,1553911200.0,34.0,1027.67,294.15,Upington,ZA,13.87,1.0
0.0,28.96,-13.65,2019-03-30 02:30:00,1553913000.0,77.0,1067.27,290.15,Tias,ES,9.17,2.6
0.0,59.7,30.79,2019-03-30 03:10:36,1553915436.0,86.0,1058.27,276.48,Nikolskoye,RU,4.7,4.0
0.0,12.35,32.18,2019-03-30 03:15:24,1553915724.0,24.0,1060.68,291.54,Marabba,SD,10.29,3.25
48.0,-8.93,125.41,2019-03-30 03:15:25,1553915725.0,94.0,1054.47,297.64,Airai,TL,5.03,0.6
80.0,70.86,29.09,2019-03-30 03:15:27,1553915727.0,100.0,1026.07,273.49,Berlevag,NO,2.24,11.95
1.0,46.49,-84.36,2019-03-30 02:56:00,1553914560.0,54.0,1067.7,272.15,Sault Sainte Marie,CA,8.16,2.6
40.0,-23.68,-45.44,2019-03-30 02:00:00,1553911200.0,82.0,1062.48,293.15,Porto Novo,BR,7.83,3.1
92.0,34.78,72.36,2019-03-30 03:13:08,1553915588.0,100.0,1059.06,280.39,Mingaora,PK,4.7,0.75
90.0,63.75,-68.52,2019-03-30 03:12:02,1553915522.0,85.0,1049.07,261.15,Iqaluit,CA,5.82,3.1
68.0,-34.72,135.86,2019-03-30 03:14:15,1553915655.0,88.0,1004.88,289.99,Port Lincoln,AU,2.68,6.9
75.0,37.72,-25.43,2019-03-30 03:15:12,1553915712.0,67.0,1070.13,287.15,Vila Franca do Campo,PT,9.4,2.1
0.0,13.34,7.75,2019-03-30 03:15:38,1553915738.0,26.0,1001.28,293.84,Seydi,NE,11.97,4.0
0.0,5.35,48.53,2019-03-30 03:15:40,1553915740.0,90.0,1034.87,298.49,Hobyo,SO,14.99,3.9
5.0,48.42,-71.95,2019-03-30 03:11:15,1553915475.0,57.0,1009.67,267.04,Desbiens,CA,20.8,2.6
8.0,-18.96,-57.8,2019-03-30 03:15:43,1553915743.0,87.0,1044.12,298.14,Puerto Suarez,BO,7.61,0.85
12.0,11.02,124.59,2019-03-30 03:15:45,1553915745.0,73.0,1056.99,301.74,Linao,PH,3.58,2.25
90.0,39.31,-74.98,2019-03-30 03:12:30,1553915550.0,76.0,1020.47,288.15,Port Elizabeth,US,13.87,3.4
20.0,-51.62,-69.22,2019-03-30 02:00:00,1553911200.0,81.0,1016.87,281.15,Rio Gallegos,AR,11.18,3.1
56.0,62.91,6.91,2019-03-30 03:01:45,1553914905.0,99.0,1023.78,277.15,Bud,NO,11.74,12.3
1.0,60.79,-161.76,2019-03-30 01:56:00,1553910960.0,60.0,1028.1,280.15,Bethel,US,2.91,6.2
0.0,-4.22,142.82,2019-03-30 03:15:53,1553915753.0,74.0,1011.27,303.94,Ambunti,PG,3.47,1.3
20.0,17.65,83.27,2019-03-30 02:30:00,1553913000.0,79.0,1048.06,302.15,Yarada,IN,7.0,4.1
20.0,6.8,-58.16,2019-03-30 02:00:00,1553911200.0,100.0,1016.85,297.15,Georgetown,GY,3.47,2.1
0.0,23.25,69.67,2019-03-30 03:15:58,1553915758.0,50.0,1061.87,298.49,Bhuj,IN,5.82,4.6
32.0,-5.25,-42.21,2019-03-30 03:16:00,1553915760.0,97.0,1051.07,295.04,Alto Longa,BR,26.4,2.25
20.0,51.59,-3.0,2019-03-30 03:15:56,1553915756.0,100.0,1004.27,279.26,Newport,GB,5.82,1.0
0.0,-16.48,-151.75,2019-03-30 03:16:05,1553915765.0,100.0,1040.27,302.39,Faanui,PF,6.93,3.65
80.0,18.9,-3.53,2019-03-30 03:16:06,1553915766.0,28.0,1017.84,299.49,Araouane,ML,17.11,3.5
20.0,-20.41,57.7,2019-03-30 03:14:04,1553915644.0,88.0,1067.7,297.59,Mahebourg,MU,2.57,2.1
40.0,-33.93,18.42,2019-03-30 03:12:07,1553915527.0,88.0,1061.67,292.04,Cape Town,ZA,2.01,2.6
0.0,65.73,150.89,2019-03-30 03:16:11,1553915771.0,60.0,1065.47,267.49,Zyryanka,RU,10.29,1.2
0.0,15.44,119.9,2019-03-30 03:16:12,1553915772.0,77.0,1055.55,302.54,Palauig,PH,15.88,0.75
8.0,11.0,122.67,2019-03-30 03:13:03,1553915583.0,54.0,1079.08,303.74,Dingle,PH,5.82,4.2
36.0,66.15,-65.72,2019-03-30 03:16:15,1553915775.0,59.0,1066.8,265.49,Pangnirtung,CA,2.91,5.35
75.0,-42.48,-73.76,2019-03-30 02:00:00,1553911200.0,87.0,1046.07,284.15,Castro,CL,16.11,6.7
75.0,69.44,-133.03,2019-03-30 02:37:00,1553913420.0,86.0,1050.15,270.15,Tuktoyaktuk,CA,1.23,9.3
24.0,25.02,37.27,2019-03-30 03:16:21,1553915781.0,100.0,1011.47,289.29,Umm Lajj,SA,1.12,3.4
48.0,7.99,-10.85,2019-03-30 03:16:23,1553915783.0,90.0,1060.07,296.44,Daru,SL,6.93,1.6
90.0,40.95,45.73,2019-03-30 02:30:00,1553913000.0,93.0,1018.2,276.15,Govlyar,AZ,7.72,6.2
20.0,48.46,135.46,2019-03-30 02:30:00,1553913000.0,31.0,1022.27,274.15,Knyaze-Volkonskoye,RU,11.41,5.0
44.0,52.25,79.17,2019-03-30 03:16:27,1553915787.0,90.0,1025.08,277.99,Klyuchi,RU,14.99,5.25
0.0,-37.72,-72.23,2019-03-30 03:16:29,1553915789.0,81.0,1039.8,280.39,Mulchen,CL,1.68,1.3
88.0,56.85,105.25,2019-03-30 03:16:30,1553915790.0,76.0,1025.87,271.04,Yantal,RU,2.35,1.55
12.0,69.7,170.27,2019-03-30 03:16:32,1553915792.0,75.0,1052.08,259.54,Pevek,RU,8.05,2.75
0.0,-46.28,169.85,2019-03-30 03:16:23,1553915783.0,73.0,1067.27,291.48,Kaitangata,NZ,6.93,3.13
0.0,58.6,99.18,2019-03-30 03:16:35,1553915795.0,61.0,1045.92,274.14,Kodinsk,RU,2.8,1.55
0.0,6.12,81.12,2019-03-30 02:10:00,1553911800.0,94.0,1070.87,299.15,Hambantota,LK,5.82,2.6
75.0,-35.36,150.48,2019-03-30 03:15:47,1553915747.0,64.0,1052.87,293.15,Ulladulla,AU,14.99,11.8
75.0,55.74,-97.86,2019-03-30 02:00:00,1553911200.0,48.0,1027.67,267.15,Thompson,CA,4.7,2.6
75.0,-41.87,-73.83,2019-03-30 02:00:00,1553911200.0,87.0,1028.01,284.15,Ancud,CL,1.9,6.7
40.0,-0.39,-78.55,2019-03-30 03:15:42,1553915742.0,93.0,1043.87,287.15,San Cristobal,EC,5.82,3.1
20.0,63.05,179.32,2019-03-30 03:16:46,1553915806.0,89.0,1063.2,274.69,Beringovskiy,RU,14.54,7.65
0.0,14.07,98.19,2019-03-30 03:16:47,1553915807.0,64.0,1034.08,302.39,Dawei,MM,5.82,1.15
32.0,-0.86,131.25,2019-03-30 03:16:49,1553915809.0,100.0,1066.44,299.04,Sorong,ID,3.69,0.9
0.0,10.15,-85.45,2019-03-30 02:00:00,1553911200.0,54.0,1011.72,301.15,Nicoya,CR,6.38,4.6
0.0,-33.02,27.91,2019-03-30 03:13:27,1553915607.0,100.0,1038.27,295.64,East London,ZA,13.42,7.1
76.0,14.88,103.49,2019-03-30 03:08:34,1553915314.0,74.0,1011.0,308.71,Surin,TH,4.92,2.6
44.0,-2.54,115.51,2019-03-30 03:13:31,1553915611.0,77.0,1015.14,301.89,Labuhan,ID,4.7,1.3
92.0,62.23,-6.59,2019-03-30 02:50:00,1553914200.0,100.0,1020.07,275.15,Klaksvik,FO,2.35,6.7
75.0,-34.83,138.5,2019-03-30 03:16:53,1553915813.0,58.0,1029.9,290.37,Peterhead,AU,4.36,7.2
8.0,-7.01,23.45,2019-03-30 03:17:00,1553915820.0,90.0,1050.6,292.64,Mwene-Ditu,CD,3.91,0.55
20.0,63.84,-22.43,2019-03-30 03:14:43,1553915683.0,79.0,1034.08,271.15,Grindavik,IS,4.7,0.5
40.0,-16.44,-39.06,2019-03-30 03:00:00,1553914800.0,83.0,1033.07,298.15,Porto Seguro,BR,6.93,3.1
0.0,48.99,24.71,2019-03-30 03:17:05,1553915825.0,94.0,1047.47,274.89,Yamnytsya,UA,18.34,3.45
75.0,43.49,142.04,2019-03-30 02:10:00,1553911800.0,74.0,979.07,277.15,Utashinai,JP,20.8,5.1
0.0,57.64,18.3,2019-03-30 03:15:46,1553915746.0,80.0,1028.1,278.71,Visby,SE,27.18,6.7
8.0,29.7,-9.73,2019-03-30 03:17:09,1553915829.0,78.0,1040.27,286.89,Tiznit,MA,3.36,0.75
90.0,43.05,-76.15,2019-03-30 03:12:04,1553915524.0,80.0,1039.06,279.15,Syracuse,US,2.35,1.05
75.0,30.04,-94.42,2019-03-30 03:16:59,1553915819.0,88.0,1062.57,293.71,Nome,US,3.69,3.6
40.0,-23.13,150.74,2019-03-30 02:30:00,1553913000.0,70.0,1045.67,302.15,Yeppoon,AU,12.75,3.1
12.0,0.92,31.77,2019-03-30 03:17:15,1553915835.0,94.0,1065.27,290.29,Kiboga,UG,7.83,1.25
75.0,4.26,117.89,2019-03-30 02:00:00,1553911200.0,66.0,1040.07,304.15,Tawau,MY,11.07,2.6
0.0,-25.24,130.99,2019-03-30 02:00:00,1553911200.0,35.0,1050.06,294.15,Yulara,AU,1.01,6.7
75.0,51.96,-8.06,2019-03-30 03:02:00,1553914920.0,75.0,1040.27,280.15,Kilrush,IE,8.05,2.1
92.0,60.14,-45.24,2019-03-30 03:13:36,1553915616.0,97.0,1067.16,273.19,Nanortalik,GL,11.74,3.6
12.0,-13.74,-72.9,2019-03-30 03:17:24,1553915844.0,84.0,1033.07,280.34,Matara,PE,1.12,0.85
20.0,27.91,-15.45,2019-03-30 03:15:33,1553915733.0,72.0,1067.27,289.15,Aguimes,ES,4.7,2.6
92.0,-17.73,-39.27,2019-03-30 03:17:27,1553915847.0,100.0,1015.07,299.89,Caravelas,BR,4.47,6.5
0.0,42.61,14.07,2019-03-30 03:16:41,1553915801.0,100.0,1009.67,283.71,Pineto,IT,10.29,2.6
44.0,-4.97,39.83,2019-03-30 03:17:30,1553915850.0,100.0,1016.87,301.69,Micheweni,TZ,8.05,1.65
44.0,62.14,65.43,2019-03-30 03:17:32,1553915852.0,92.0,1058.16,271.29,Nyagan,RU,2.91,2.85
0.0,41.88,16.18,2019-03-30 03:17:35,1553915855.0,100.0,1059.51,286.04,Vieste,IT,8.5,6.0
32.0,45.76,106.27,2019-03-30 03:17:37,1553915857.0,80.0,1006.59,270.89,Mandalgovi,MN,18.9,2.2
20.0,60.37,93.04,2019-03-30 03:17:39,1553915859.0,61.0,1016.85,273.19,Severo-Yeniseyskiy,RU,26.06,2.1
0.0,8.58,81.23,2019-03-30 03:17:40,1553915860.0,67.0,1064.46,300.84,Trincomalee,LK,4.59,2.05
92.0,61.84,6.81,2019-03-30 03:17:16,1553915836.0,92.0,1009.47,275.93,Olden,NO,16.11,1.05
0.0,36.41,64.91,2019-03-30 03:13:38,1553915618.0,83.0,1060.07,281.39,Dawlatabad,AF,8.72,1.95
64.0,-11.1,-77.61,2019-03-30 03:17:48,1553915868.0,87.0,1061.4,292.89,Hualmay,PE,3.47,1.75
0.0,43.56,6.97,2019-03-30 03:17:20,1553915840.0,75.0,1052.58,283.71,Saint-Joseph,FR,3.47,2.1
20.0,47.13,-119.28,2019-03-30 03:10:36,1553915436.0,66.0,1072.11,283.15,Moses Lake,US,4.59,3.1
0.0,-45.87,-67.48,2019-03-30 02:00:00,1553911200.0,48.0,1060.07,291.15,Comodoro Rivadavia,AR,10.29,8.2
90.0,70.47,-68.59,2019-03-30 02:16:00,1553912160.0,83.0,1020.63,253.15,Clyde River,CA,10.4,9.3
88.0,61.47,-6.81,2019-03-30 03:17:55,1553915875.0,99.0,1026.07,280.39,Vagur,FO,1.12,12.15
40.0,-29.95,-71.34,2019-03-30 02:00:00,1553911200.0,82.0,1038.47,287.15,Coquimbo,CL,12.75,1.5
0.0,32.61,35.33,2019-03-30 03:15:56,1553915756.0,91.0,1029.47,286.48,Sulam,IL,6.93,1.05
12.0,7.53,-12.5,2019-03-30 03:18:00,1553915880.0,88.0,992.82,299.54,Bonthe,SL,3.58,1.65
75.0,-33.18,138.01,2019-03-30 02:00:00,1553911200.0,55.0,1013.43,290.15,Port Pirie,AU,16.89,5.7
8.0,18.61,121.17,2019-03-30 03:18:03,1553915883.0,83.0,1058.27,301.04,Namuac,PH,2.24,3.5
56.0,37.31,-8.8,2019-03-30 03:17:24,1553915844.0,80.0,1016.87,287.04,Aljezur,PT,1.12,4.95
0.0,17.01,54.1,2019-03-30 01:50:00,1553910600.0,60.0,1038.07,296.15,Salalah,OM,5.82,1.5
12.0,-46.13,167.69,2019-03-30 03:10:06,1553915406.0,76.0,1074.27,292.59,Tuatapere,NZ,11.41,0.45
20.0,50.7,-127.42,2019-03-30 02:00:00,1553911200.0,47.0,1053.57,287.15,Port Hardy,CA,2.13,3.6
20.0,-2.67,141.3,2019-03-30 03:18:11,1553915891.0,99.0,1039.06,302.09,Vanimo,PG,6.6,5.25
0.0,-29.12,26.22,2019-03-30 03:00:00,1553914800.0,81.0,1056.45,283.15,Bloemfontein,ZA,3.24,0.5
40.0,14.89,105.88,2019-03-30 02:00:00,1553911200.0,70.0,1020.07,302.15,Champasak,LA,6.26,2.1
20.0,40.71,112.04,2019-03-30 02:00:00,1553911200.0,44.0,1021.06,273.15,Zhuhai,CN,8.99,2.0
40.0,49.72,-86.95,2019-03-30 02:00:00,1553911200.0,58.0,1065.0,270.15,Geraldton,CA,10.96,4.6
75.0,48.41,-89.26,2019-03-30 03:16:39,1553915799.0,50.0,1055.73,274.15,Thunder Bay,CA,3.91,3.6
44.0,-2.54,-57.76,2019-03-30 03:18:20,1553915900.0,96.0,1021.06,297.09,Urucara,BR,3.36,1.3
90.0,-28.95,153.24,2019-03-30 03:13:33,1553915613.0,69.0,1034.87,300.37,Codrington,AU,6.93,5.7
24.0,5.43,7.07,2019-03-30 03:18:23,1553915903.0,90.0,1013.25,297.84,Naze,NG,20.24,3.8
92.0,60.28,47.06,2019-03-30 03:18:25,1553915905.0,86.0,1056.81,274.84,Podosinovets,RU,9.28,5.35
24.0,71.64,128.87,2019-03-30 03:13:53,1553915633.0,74.0,1065.47,268.44,Tiksi,RU,3.36,8.45
92.0,65.58,-170.99,2019-03-30 03:18:28,1553915908.0,91.0,1016.13,274.14,Lavrentiya,RU,1.12,11.65
68.0,5.88,-10.05,2019-03-30 03:18:29,1553915909.0,96.0,1039.06,300.59,Buchanan,LR,3.36,2.05
75.0,27.52,-110.01,2019-03-30 01:40:00,1553910000.0,43.0,1060.07,295.15,Laguna,MX,3.36,1.0
12.0,66.83,70.83,2019-03-30 03:14:22,1553915662.0,85.0,1065.9,270.04,Yar-Sale,RU,5.7,7.2
0.0,12.88,10.45,2019-03-30 03:18:34,1553915914.0,24.0,1074.27,295.54,Nguru,NG,4.7,4.35
90.0,4.94,-52.33,2019-03-30 02:30:00,1553913000.0,94.0,1061.85,298.15,Cayenne,GF,6.93,3.9
80.0,26.65,94.32,2019-03-30 03:18:37,1553915917.0,51.0,1009.83,298.89,Mariani,IN,3.8,1.55
0.0,-45.41,167.72,2019-03-30 03:18:38,1553915918.0,51.0,1006.68,293.99,Te Anau,NZ,3.91,1.55
0.0,9.18,105.15,2019-03-30 03:18:40,1553915920.0,75.0,1049.27,304.84,Ca Mau,VN,24.16,2.05
75.0,26.12,127.67,2019-03-30 02:30:00,1553913000.0,73.0,1027.67,298.15,Itoman,JP,2.24,4.6
80.0,59.1,26.19,2019-03-30 03:13:49,1553915629.0,90.0,1050.42,276.24,Vao,EE,3.69,4.65
0.0,52.0,-0.98,2019-03-30 03:18:07,1553915887.0,100.0,1046.01,279.26,Buckingham,GB,2.35,0.5
20.0,58.81,-122.69,2019-03-30 02:00:00,1553911200.0,26.0,1015.77,286.15,Fort Nelson,CA,9.17,5.7
75.0,37.5,61.97,2019-03-30 02:00:00,1553911200.0,93.0,1070.87,281.15,Murgab,TM,10.29,3.1
12.0,68.75,161.3,2019-03-30 03:18:49,1553915929.0,68.0,1055.01,260.79,Cherskiy,RU,5.48,1.6
44.0,50.68,156.12,2019-03-30 03:18:52,1553915932.0,96.0,1038.47,272.24,Severo-Kurilsk,RU,13.87,7.55
5.0,22.89,-109.91,2019-03-30 03:10:31,1553915431.0,53.0,1066.44,297.15,Cabo San Lucas,MX,12.75,1.0
0.0,43.52,20.24,2019-03-30 03:00:00,1553914800.0,82.0,1033.07,274.15,Mana,RS,9.17,0.5
64.0,54.11,-9.15,2019-03-30 03:18:12,1553915892.0,91.0,1033.07,282.04,Ballina,IE,9.17,1.34
40.0,48.82,-124.05,2019-03-30 03:17:14,1553915834.0,58.0,1033.07,285.93,Lake Cowichan,CA,9.17,2.6
0.0,-14.25,129.55,2019-03-30 03:18:59,1553915939.0,71.0,1047.07,306.04,Port Keats,AU,2.24,5.1
92.0,1.51,21.07,2019-03-30 03:19:01,1553915941.0,99.0,1054.67,294.54,Bongandanga,CD,3.58,0.95
20.0,38.73,-27.07,2019-03-30 03:17:02,1553915822.0,87.0,1061.85,286.48,Praia da Vitoria,PT,11.74,2.95
92.0,-10.41,-36.43,2019-03-30 03:19:04,1553915944.0,100.0,1070.87,296.14,Piacabucu,BR,5.82,1.45
80.0,43.74,-81.71,2019-03-30 03:19:04,1553915944.0,68.0,1057.06,275.93,Goderich,CA,7.05,2.8
92.0,37.17,-99.65,2019-03-30 03:16:22,1553915782.0,95.0,1051.07,276.48,Sitka,US,9.17,4.02
0.0,7.45,126.58,2019-03-30 03:19:09,1553915949.0,77.0,1060.07,300.89,Baculin,PH,8.05,4.9
12.0,-5.56,-80.82,2019-03-30 03:19:11,1553915951.0,83.0,1001.37,295.74,Sechura,PE,10.4,1.75
92.0,43.97,-111.68,2019-03-30 03:15:58,1553915758.0,55.0,1042.41,276.48,Saint Anthony,US,7.38,1.5
1.0,55.34,-131.65,2019-03-30 01:56:00,1553910960.0,53.0,1001.91,284.15,Ketchikan,US,8.5,3.1
88.0,38.94,33.54,2019-03-30 03:19:15,1553915955.0,100.0,1033.07,272.14,Sereflikochisar,TR,5.82,9.05
0.0,11.84,13.15,2019-03-30 03:19:17,1553915957.0,26.0,1069.07,296.34,Maiduguri,NG,5.82,4.15
40.0,-18.65,-173.98,2019-03-30 02:00:00,1553911200.0,83.0,1049.43,301.15,Neiafu,TO,4.59,1.5
64.0,33.46,50.29,2019-03-30 03:19:20,1553915960.0,81.0,1055.07,273.74,Golpayegan,IR,11.41,0.5
0.0,38.8,-9.45,2019-03-30 03:17:00,1553915820.0,58.0,1054.65,286.48,Colares,PT,15.43,1.5
20.0,-20.21,57.76,2019-03-30 03:19:04,1553915944.0,94.0,1052.87,298.15,Quatre Cocos,MU,8.05,1.5
0.0,11.67,92.75,2019-03-30 03:19:24,1553915964.0,100.0,1062.93,301.39,Port Blair,IN,17.45,2.55
0.0,20.88,95.86,2019-03-30 03:19:26,1553915966.0,40.0,1015.07,306.04,Meiktila,MM,2.68,2.1
64.0,-0.87,134.08,2019-03-30 03:19:27,1553915967.0,100.0,1076.27,299.14,Manokwari,ID,18.34,3.1
12.0,61.68,96.39,2019-03-30 03:19:29,1553915969.0,81.0,1010.07,270.24,Baykit,RU,20.8,1.7
0.0,65.95,111.51,2019-03-30 03:19:30,1553915970.0,81.0,1038.18,268.49,Aykhal,RU,13.76,1.75
20.0,14.69,-16.54,2019-03-30 02:30:00,1553913000.0,82.0,1036.67,292.15,Gat,SN,6.93,10.8
20.0,36.47,8.55,2019-03-30 03:00:00,1553914800.0,93.0,1045.67,280.15,Wadi Maliz,TN,6.93,1.0
88.0,-4.2,36.93,2019-03-30 03:19:36,1553915976.0,97.0,1027.08,292.79,Naberera,TZ,2.68,1.65
88.0,-23.81,-64.79,2019-03-30 03:15:46,1553915746.0,94.0,1063.65,290.34,Libertador General San Martin,AR,4.59,1.05
0.0,43.65,111.97,2019-03-30 03:19:39,1553915979.0,46.0,1061.87,273.54,Erenhot,CN,12.75,4.1
75.0,-17.73,-149.15,2019-03-30 03:12:22,1553915542.0,66.0,1019.19,304.15,Tautira,PF,2.57,4.6
24.0,-29.14,-59.64,2019-03-30 03:18:05,1553915885.0,83.0,1009.67,295.34,Reconquista,AR,9.17,2.45
24.0,48.64,13.53,2019-03-30 03:18:50,1553915930.0,80.0,1052.87,277.04,Wanning,AT,6.6,0.5
75.0,34.7,138.93,2019-03-30 02:00:00,1553911200.0,71.0,1012.44,286.15,Shimoda,JP,10.4,6.2
76.0,-8.49,140.4,2019-03-30 03:19:46,1553915986.0,88.0,1027.67,301.69,Merauke,ID,4.7,5.7
75.0,36.92,31.1,2019-03-30 02:50:00,1553914200.0,66.0,1018.67,283.15,Serik,TR,6.6,4.1
0.0,44.83,-0.61,2019-03-30 03:10:43,1553915443.0,57.0,1049.27,283.15,Saint-Augustin,FR,6.93,4.1
0.0,45.6,-0.6,2019-03-30 03:16:29,1553915789.0,46.0,1067.25,283.15,Souillac,FR,10.07,4.1
20.0,-2.2,30.56,2019-03-30 03:12:07,1553915527.0,93.0,1016.87,290.93,Kibaya,RW,5.82,1.0
75.0,18.43,-68.97,2019-03-30 03:00:00,1553914800.0,100.0,1063.67,295.15,La Romana,DO,2.24,1.6
48.0,-15.19,12.15,2019-03-30 03:14:58,1553915698.0,96.0,1013.07,299.14,Namibe,AO,11.41,5.25
40.0,-13.85,136.42,2019-03-30 02:00:00,1553911200.0,66.0,1049.07,304.15,Alyangula,AU,10.4,2.6
0.0,3.94,41.86,2019-03-30 03:17:17,1553915837.0,15.0,1048.71,296.48,Mandera,ET,1.79,3.15
75.0,32.59,-89.61,2019-03-30 03:18:18,1553915898.0,63.0,1060.68,293.15,Lena,US,4.14,4.1
75.0,-2.03,-79.75,2019-03-30 03:19:58,1553915998.0,88.0,1055.73,298.15,Olinda,EC,7.72,3.6
12.0,62.93,152.39,2019-03-30 03:20:06,1553916006.0,72.0,1049.27,265.54,Seymchan,RU,3.36,4.65
0.0,-13.23,30.22,2019-03-30 03:20:08,1553916008.0,84.0,1019.07,288.34,Serenje,ZM,3.47,3.3
32.0,66.82,65.8,2019-03-30 03:20:11,1553916011.0,89.0,1042.07,265.84,Kharp,RU,6.93,3.8
12.0,41.07,1.07,2019-03-30 03:19:49,1553915989.0,81.0,1039.06,283.15,Cambrils,ES,3.36,2.6
20.0,13.22,80.32,2019-03-30 02:33:54,1553913234.0,74.0,1052.87,303.15,Kattivakkam,IN,9.17,2.6
20.0,-23.04,29.91,2019-03-30 03:20:15,1553916015.0,92.0,1067.43,292.24,Louis Trichardt,ZA,3.58,2.05
75.0,32.87,-97.01,2019-03-30 03:20:15,1553916015.0,68.0,1051.07,295.37,Estelle,US,5.01,5.1
48.0,-30.17,-50.22,2019-03-30 03:16:04,1553915764.0,78.0,1018.11,295.14,Cidreira,BR,3.69,6.9
20.0,31.65,131.31,2019-03-30 03:12:24,1553915544.0,52.0,1036.67,294.15,Nichinan,JP,2.24,3.6
88.0,-5.67,132.75,2019-03-30 03:20:24,1553916024.0,100.0,1054.67,299.74,Tual,ID,10.29,7.8
90.0,39.23,42.86,2019-03-30 02:50:00,1553914200.0,95.0,1036.67,273.15,Patnos,TR,3.36,1.2
56.0,-20.31,118.58,2019-03-30 02:30:00,1553913000.0,34.0,1059.24,307.15,Port Hedland,AU,2.57,8.2
1.0,47.91,-97.06,2019-03-30 03:15:42,1553915742.0,68.0,1027.11,270.37,Grand Forks,US,3.47,9.3
36.0,29.03,21.55,2019-03-30 03:20:30,1553916030.0,78.0,1039.06,285.99,Jalu,LY,9.17,6.15
0.0,-33.58,-71.61,2019-03-30 02:00:00,1553911200.0,93.0,1058.25,285.15,San Antonio,CL,2.01,3.1
0.0,49.48,6.09,2019-03-30 03:20:06,1553916006.0,65.0,1018.38,281.15,Dudelange,LU,2.35,2.1
75.0,34.97,-92.02,2019-03-30 03:18:30,1553915910.0,82.0,1014.87,290.15,Cabot,US,9.62,3.1
8.0,52.06,-2.72,2019-03-30 03:18:16,1553915896.0,94.0,1041.06,279.82,Hereford,GB,6.93,1.2
68.0,-9.43,159.96,2019-03-30 03:20:38,1553916038.0,92.0,1019.07,300.14,Honiara,SB,9.62,2.05
40.0,24.8,125.28,2019-03-30 02:00:00,1553911200.0,69.0,1058.07,299.15,Hirara,JP,5.82,5.7
12.0,36.62,101.77,2019-03-30 03:15:53,1553915753.0,34.0,1069.07,275.44,Xining,CN,19.46,1.15
40.0,51.21,-102.46,2019-03-30 02:00:00,1553911200.0,63.0,1063.47,270.15,Yorkton,CA,6.38,4.1
75.0,25.28,110.29,2019-03-30 02:00:00,1553911200.0,68.0,1016.58,294.15,Guilin,CN,3.91,2.95
76.0,69.49,88.39,2019-03-30 03:20:46,1553916046.0,92.0,1056.18,271.69,Talnakh,RU,4.14,4.65
1.0,64.86,-147.8,2019-03-30 03:18:14,1553915894.0,56.0,1030.17,280.15,College,US,2.46,2.1
0.0,46.42,3.91,2019-03-30 02:30:00,1553913000.0,80.0,1054.11,275.15,Saint-Francois,FR,8.16,2.95
20.0,-8.65,115.22,2019-03-30 02:30:00,1553913000.0,74.0,1018.67,303.15,Denpasar,ID,10.29,3.1
0.0,15.8,-84.28,2019-03-30 03:18:07,1553915887.0,85.0,1060.07,298.39,Barra Patuca,HN,4.7,4.4
20.0,26.33,43.97,2019-03-30 03:00:00,1553914800.0,82.0,1031.27,292.15,Buraydah,SA,6.93,3.1
24.0,10.57,72.64,2019-03-30 03:20:55,1553916055.0,99.0,1058.97,302.14,Kavaratti,IN,5.59,4.5
75.0,60.82,-115.79,2019-03-30 02:00:00,1553911200.0,74.0,1015.5,274.15,Hay River,CA,12.64,2.6
0.0,-3.71,-38.6,2019-03-30 03:08:21,1553915301.0,83.0,1061.87,300.15,Vila Velha,BR,1.12,1.0
0.0,63.89,34.27,2019-03-30 03:20:59,1553916059.0,67.0,1047.47,272.04,Nadvoitsy,RU,13.87,5.1
0.0,-34.05,23.37,2019-03-30 03:21:01,1553916061.0,100.0,1043.08,292.04,Plettenberg Bay,ZA,4.7,4.65
88.0,-5.61,-78.44,2019-03-30 03:21:02,1553916062.0,98.0,1019.01,291.84,La Peca,PE,3.91,0.8
48.0,-14.27,50.17,2019-03-30 03:21:04,1553916064.0,100.0,1052.87,298.49,Sambava,MG,11.41,1.85
20.0,-20.08,-49.91,2019-03-30 03:21:05,1553916065.0,68.0,1029.07,295.74,Cardoso,BR,5.82,3.45
1.0,33.19,-82.53,2019-03-30 03:20:39,1553916039.0,37.0,1045.08,292.15,Avera,US,14.99,1.5
0.0,40.78,21.48,2019-03-30 03:20:49,1553916049.0,82.0,1055.01,275.37,Ammokhorion,GR,9.73,1.55
75.0,3.63,9.81,2019-03-30 03:00:00,1553914800.0,94.0,1003.08,300.15,Yatou,CM,13.09,1.0
44.0,28.66,-17.92,2019-03-30 02:30:00,1553913000.0,62.0,1023.06,288.15,Los Llanos de Aridane,ES,5.99,3.1
75.0,40.81,-74.0,2019-03-30 03:21:13,1553916073.0,76.0,1055.07,286.48,Fairview,US,6.93,1.5
1.0,30.3,-99.24,2019-03-30 03:21:16,1553916076.0,68.0,1066.62,294.15,Harper,US,5.59,4.1
8.0,-8.09,111.9,2019-03-30 03:21:20,1553916080.0,74.0,1030.06,302.24,Boyolangu,ID,8.05,1.6
88.0,-39.94,176.59,2019-03-30 03:12:17,1553915537.0,70.0,1061.76,293.15,Waipawa,NZ,12.19,2.24
56.0,39.77,98.29,2019-03-30 03:21:24,1553916084.0,70.0,1067.25,274.84,Jiayuguan,CN,5.82,1.65
12.0,21.46,-71.14,2019-03-30 03:20:07,1553916007.0,100.0,1056.47,297.69,Cockburn Town,TC,5.82,4.2
0.0,-45.58,-72.07,2019-03-30 02:00:00,1553911200.0,81.0,1047.47,285.15,Coihaique,CL,8.05,1.0
75.0,65.28,-126.83,2019-03-30 02:00:00,1553911200.0,64.0,1025.08,276.15,Norman Wells,CA,3.69,5.1
5.0,23.99,-104.67,2019-03-30 02:52:00,1553914320.0,12.0,1033.07,295.15,Constitucion,MX,5.82,4.6
0.0,38.18,-1.13,2019-03-30 03:21:30,1553916090.0,70.0,1065.0,285.15,Fortuna,ES,2.8,1.5
88.0,-6.22,-57.76,2019-03-30 03:21:36,1553916096.0,94.0,1020.81,297.69,Jacareacanga,BR,2.46,1.15
0.0,28.22,61.21,2019-03-30 03:21:37,1553916097.0,34.0,1046.07,279.84,Khash,IR,8.05,1.55
90.0,40.58,-86.19,2019-03-30 03:20:58,1553916058.0,100.0,1013.27,286.48,Galveston,US,6.71,4.1
88.0,-9.17,-60.63,2019-03-30 03:21:40,1553916100.0,96.0,1043.87,297.14,Aripuana,BR,10.29,0.9
0.0,41.42,-6.55,2019-03-30 03:21:43,1553916103.0,80.0,1002.45,274.99,Saldanha,PT,15.1,1.05
80.0,62.71,56.19,2019-03-30 03:21:45,1553916105.0,82.0,1018.83,273.04,Troitsko-Pechorsk,RU,11.41,4.3
90.0,39.75,-75.55,2019-03-30 03:18:57,1553915937.0,66.0,1014.42,287.59,Wilmington,US,8.16,3.1
1.0,44.08,-93.51,2019-03-30 03:20:17,1553916017.0,69.0,1047.27,275.37,Waseca,US,4.81,4.3
20.0,28.39,-105.62,2019-03-30 03:20:11,1553916011.0,19.0,1010.1,297.04,Lazaro Cardenas,MX,3.58,2.6
40.0,-25.3,152.85,2019-03-30 03:15:11,1553915711.0,62.0,1029.07,303.15,Hervey Bay,AU,1.34,8.7
88.0,-2.57,150.8,2019-03-30 03:21:52,1553916112.0,100.0,1012.26,300.04,Kavieng,PG,2.13,2.85
8.0,49.81,129.81,2019-03-30 03:21:54,1553916114.0,30.0,1053.3,273.99,Bureya,RU,3.36,1.75
8.0,-26.98,-56.83,2019-03-30 03:17:04,1553915824.0,85.0,1016.87,295.99,San Patricio,PY,2.24,1.85
36.0,32.56,76.12,2019-03-30 03:18:55,1553915935.0,83.0,999.3,281.54,Chamba,IN,3.58,1.1
0.0,-15.0,22.67,2019-03-30 03:21:58,1553916118.0,43.0,1018.67,294.84,Kalabo,ZM,13.87,3.65
90.0,46.13,-67.84,2019-03-30 03:21:32,1553916092.0,94.0,1008.57,275.15,Houlton,US,5.93,4.6
75.0,-5.2,-35.46,2019-03-30 03:00:00,1553914800.0,100.0,1045.67,298.15,Touros,BR,9.17,2.1
75.0,61.22,-149.89,2019-03-30 03:21:50,1553916110.0,70.0,1034.87,282.15,Anchorage,US,16.11,3.1
80.0,4.14,96.13,2019-03-30 03:22:07,1553916127.0,100.0,1045.08,297.54,Meulaboh,ID,2.24,2.5
92.0,63.2,75.45,2019-03-30 03:22:08,1553916128.0,97.0,1045.92,273.39,Noyabrsk,RU,7.27,5.65
75.0,-23.84,151.26,2019-03-30 03:18:03,1553915883.0,83.0,1023.06,299.15,Gladstone,AU,1.68,0.5
75.0,33.72,135.99,2019-03-30 02:00:00,1553911200.0,31.0,1059.06,291.15,Shingu,JP,0.78,6.2
75.0,45.52,-122.67,2019-03-30 03:17:20,1553915840.0,47.0,1017.03,288.71,Portland,US,5.14,2.1
0.0,56.08,98.48,2019-03-30 03:22:14,1553916134.0,53.0,1063.02,275.34,Kvitok,RU,13.31,1.75
1.0,30.67,-96.37,2019-03-30 03:18:39,1553915919.0,77.0,1009.67,294.15,Bryan,US,2.91,5.1
20.0,60.55,-151.26,2019-03-30 03:11:07,1553915467.0,65.0,1013.27,280.93,Kenai,US,6.93,2.6
75.0,-43.03,147.26,2019-03-30 03:22:15,1553916135.0,38.0,1017.03,289.82,Margate,AU,8.05,6.7
0.0,-18.35,26.5,2019-03-30 03:22:20,1553916140.0,51.0,1035.07,295.34,Hwange,ZW,5.82,4.35
0.0,-13.71,-76.2,2019-03-30 02:00:00,1553911200.0,78.0,1045.74,295.15,Pisco,PE,0.11,6.2
92.0,9.49,50.81,2019-03-30 03:22:23,1553916143.0,100.0,1035.07,298.99,Bandarbeyla,SO,5.82,2.95
64.0,70.62,147.9,2019-03-30 03:22:24,1553916144.0,92.0,1009.83,266.49,Chokurdakh,RU,10.18,5.85
0.0,57.75,24.36,2019-03-30 03:20:17,1553916017.0,87.0,1042.59,277.59,Salacgriva,LV,6.04,2.68
40.0,24.73,-77.79,2019-03-30 03:15:54,1553915754.0,73.0,1046.55,295.37,Andros Town,BS,8.05,3.1
0.0,17.55,80.65,2019-03-30 03:22:30,1553916150.0,65.0,1027.67,301.79,Chatakonda,IN,4.7,2.5
75.0,41.28,-70.1,2019-03-30 03:22:14,1553916134.0,87.0,1016.87,281.48,Nantucket,US,6.93,3.6
48.0,10.67,-63.26,2019-03-30 03:22:35,1553916155.0,84.0,1052.85,299.09,Carupano,VE,13.87,5.45
24.0,-3.36,135.5,2019-03-30 03:22:36,1553916156.0,78.0,1070.13,300.54,Nabire,ID,5.14,1.15
0.0,11.24,79.84,2019-03-30 03:22:38,1553916158.0,81.0,1046.28,302.14,Tirumullaivasal,IN,3.69,2.6
5.0,20.71,-105.21,2019-03-30 03:20:15,1553916015.0,83.0,1013.27,296.15,Ixtapa,MX,20.8,2.6
92.0,-9.67,-35.74,2019-03-30 03:22:41,1553916161.0,95.0,1047.36,298.24,Maceio,BR,9.62,2.05
12.0,54.72,-6.22,2019-03-30 03:20:06,1553916006.0,87.0,1063.67,282.15,Antrim,GB,5.82,2.1
0.0,24.63,46.72,2019-03-30 03:00:00,1553914800.0,27.0,1014.42,291.15,Riyadh,SA,3.13,3.6
0.0,47.7,9.56,2019-03-30 03:22:27,1553916147.0,93.0,1037.07,278.71,Meckenbeuren,DE,5.82,1.65
5.0,54.78,-127.17,2019-03-30 02:00:00,1553911200.0,39.0,1047.07,283.15,Smithers,CA,5.01,2.6
48.0,5.56,95.32,2019-03-30 03:22:48,1553916168.0,93.0,1016.87,300.89,Banda Aceh,ID,5.82,1.25
44.0,50.93,84.77,2019-03-30 03:22:50,1553916170.0,89.0,1027.08,276.34,Ust-Kan,RU,1.99,1.1
75.0,36.85,-75.98,2019-03-30 03:21:24,1553916084.0,54.0,1023.51,290.37,Virginia Beach,US,6.15,3.6
75.0,47.8,67.71,2019-03-30 02:00:00,1553911200.0,100.0,1070.67,272.15,Zhezkazgan,KZ,10.63,3.0
1.0,34.64,-120.46,2019-03-30 03:18:04,1553915884.0,76.0,1071.57,289.15,Lompoc,US,4.92,4.6
80.0,65.8,87.96,2019-03-30 03:22:55,1553916175.0,96.0,1024.07,272.54,Turukhansk,RU,4.7,7.8
0.0,68.05,39.51,2019-03-30 03:22:57,1553916177.0,81.0,1015.07,266.14,Ostrovnoy,RU,41.38,6.75
0.0,54.43,31.9,2019-03-30 03:22:58,1553916178.0,89.0,1036.29,275.24,Sobolevo,RU,4.81,5.1
44.0,58.22,92.49,2019-03-30 03:23:00,1553916180.0,81.0,1030.06,272.79,Lesosibirsk,RU,5.82,3.65
8.0,-14.8,36.54,2019-03-30 03:23:01,1553916181.0,95.0,1027.08,291.04,Cuamba,MZ,11.41,2.15
56.0,53.27,140.15,2019-03-30 03:23:03,1553916183.0,58.0,1056.45,270.39,Mago,RU,3.36,1.6
64.0,42.55,-6.59,2019-03-30 03:22:59,1553916179.0,41.0,1043.87,280.93,Ponferrada,ES,19.46,0.6
0.0,32.93,66.63,2019-03-30 03:23:06,1553916186.0,67.0,1069.07,271.59,Uruzgan,AF,3.36,0.95
68.0,-0.88,14.81,2019-03-30 03:23:07,1553916187.0,96.0,1029.07,294.39,Ewo,CG,17.22,1.5
20.0,43.46,39.92,2019-03-30 02:30:00,1553913000.0,100.0,1014.15,274.15,Orel-Izumrud,RU,10.85,1.0
44.0,40.67,33.6,2019-03-30 03:23:10,1553916190.0,88.0,1015.68,264.39,Ayan,TR,21.7,1.6
0.0,65.58,22.15,2019-03-30 02:50:00,1553914200.0,64.0,1054.08,275.15,Lulea,SE,10.51,6.2
44.0,64.25,-15.21,2019-03-30 03:23:14,1553916194.0,100.0,1025.08,270.84,Hofn,IS,17.22,10.3
32.0,59.56,150.8,2019-03-30 03:23:15,1553916195.0,100.0,1024.07,269.54,Magadan,RU,4.0,2.65
40.0,19.61,110.49,2019-03-30 02:00:00,1553911200.0,78.0,1012.08,301.15,Jiazi,CN,14.2,3.0
75.0,-23.65,-70.4,2019-03-30 02:00:00,1553911200.0,82.0,1048.06,290.15,Antofagasta,CL,3.0,4.1
90.0,35.47,23.6,2019-03-30 03:20:46,1553916046.0,100.0,1004.27,284.15,Platanos,GR,8.05,7.2
40.0,33.51,132.54,2019-03-30 03:08:12,1553915292.0,93.0,1024.07,289.82,Ozu,JP,34.45,1.0
0.0,14.53,20.93,2019-03-30 03:23:23,1553916203.0,30.0,1012.35,290.29,Biltine,TD,5.93,3.25
0.0,42.57,1.6,2019-03-30 03:23:09,1553916189.0,63.0,1021.06,277.59,Canillo,FR,1.99,0.75
48.0,-9.45,124.48,2019-03-30 03:23:27,1553916207.0,99.0,1006.23,297.59,Kefamenanu,ID,15.1,0.35
24.0,58.18,94.69,2019-03-30 03:23:29,1553916209.0,58.0,1057.08,274.24,Motygino,RU,10.18,2.3
80.0,-16.23,39.91,2019-03-30 03:23:32,1553916212.0,100.0,1068.96,299.79,Angoche,MZ,4.14,5.95
90.0,60.91,-46.05,2019-03-30 02:50:00,1553914200.0,92.0,1035.93,270.15,Narsaq,GL,6.38,1.3
1.0,46.54,-87.4,2019-03-30 03:18:01,1553915881.0,63.0,1033.07,272.15,Marquette,US,2.24,3.1
92.0,65.44,52.15,2019-03-30 03:23:36,1553916216.0,87.0,1021.26,274.24,Ust-Tsilma,RU,2.91,3.6
0.0,43.2,-8.36,2019-03-30 03:21:12,1553916072.0,81.0,1015.07,284.26,Beira,ES,4.7,2.6
44.0,-22.09,-70.2,2019-03-30 03:23:39,1553916219.0,100.0,1038.47,290.19,Tocopilla,CL,2.24,0.05
0.0,42.77,-9.06,2019-03-30 03:21:47,1553916107.0,65.0,1072.67,284.26,Muros,ES,13.87,2.6
0.0,67.56,30.47,2019-03-30 03:23:42,1553916222.0,65.0,1059.06,270.24,Kovdor,RU,3.58,4.55
20.0,-20.74,116.85,2019-03-30 03:23:43,1553916223.0,46.0,1061.87,306.89,Karratha,AU,9.17,8.75
0.0,25.95,-105.37,2019-03-30 03:23:45,1553916225.0,19.0,1035.07,288.44,Santa Maria del Oro,MX,5.82,2.7
0.0,18.69,12.92,2019-03-30 03:23:46,1553916226.0,40.0,1025.87,290.64,Bilma,NE,5.82,3.6
0.0,39.93,64.38,2019-03-30 02:30:00,1553913000.0,87.0,1013.07,280.15,Romitan,UZ,9.4,2.1
0.0,8.38,-80.16,2019-03-30 03:17:50,1553915870.0,73.0,1040.27,298.15,Rio Hato,PA,4.7,4.1
75.0,68.22,-135.01,2019-03-30 02:00:00,1553911200.0,64.0,1066.17,274.15,Aklavik,CA,6.71,3.1
24.0,-42.77,-65.04,2019-03-30 03:23:52,1553916232.0,55.0,1049.34,294.14,Puerto Madryn,AR,2.68,6.2
0.0,18.82,78.72,2019-03-30 03:23:54,1553916234.0,35.0,1021.17,303.74,Koratla,IN,9.62,2.3
100.0,-22.19,-46.24,2019-03-30 03:23:55,1553916235.0,98.0,1051.14,290.49,Cervo,BR,8.39,1.65
40.0,40.24,33.03,2019-03-30 03:21:46,1553916106.0,63.0,1063.67,272.15,Cubuk,TR,6.93,9.3
8.0,-36.78,-59.86,2019-03-30 03:24:00,1553916240.0,84.0,1002.45,291.09,Azul,AR,3.36,4.3
40.0,15.74,-96.47,2019-03-30 03:16:46,1553915806.0,74.0,1043.87,300.15,Pochutla,MX,6.93,2.6
64.0,54.81,105.15,2019-03-30 03:24:03,1553916243.0,68.0,1058.07,272.79,Zhigalovo,RU,1.9,1.4
75.0,35.74,139.53,2019-03-30 03:23:40,1553916220.0,61.0,1020.47,285.37,Nishihara,JP,17.22,2.6
36.0,-22.12,14.28,2019-03-30 03:02:07,1553914927.0,89.0,1050.51,290.93,Henties Bay,NA,5.03,2.24
36.0,60.8,21.41,2019-03-30 02:50:00,1553914200.0,83.0,1055.73,274.15,Uusikaupunki,FI,10.4,2.6
0.0,41.67,25.61,2019-03-30 03:20:12,1553916012.0,54.0,1067.88,279.82,Konevo,BG,3.58,0.89
0.0,55.07,-117.28,2019-03-30 03:24:13,1553916253.0,60.0,1006.5,277.84,Valleyview,CA,8.72,2.75
12.0,-8.15,159.59,2019-03-30 03:24:14,1553916254.0,75.0,1003.71,304.04,Buala,SB,3.58,4.75
0.0,21.32,83.0,2019-03-30 03:24:16,1553916256.0,35.0,1059.96,304.54,Saraipali,IN,2.57,2.2
0.0,46.91,21.71,2019-03-30 03:00:00,1553914800.0,80.0,1024.07,278.15,Cefa,RO,1.99,2.1
88.0,71.0,24.66,2019-03-30 02:50:00,1553914200.0,97.0,1024.07,273.15,Havoysund,NO,12.75,18.5
32.0,45.63,85.18,2019-03-30 03:24:20,1553916260.0,77.0,1023.06,284.94,Baijiantan,CN,11.18,2.15
0.0,43.27,-7.54,2019-03-30 03:23:57,1553916237.0,81.0,1056.47,281.48,Bereda,ES,2.24,2.6
90.0,44.65,-63.58,2019-03-30 03:23:55,1553916235.0,100.0,1003.98,279.82,Halifax,CA,8.84,5.1
48.0,-2.9,-40.84,2019-03-30 03:24:25,1553916265.0,97.0,1012.89,296.14,Camocim,BR,10.96,1.5
40.0,-31.97,141.45,2019-03-30 02:04:00,1553911440.0,46.0,1022.07,289.15,Broken Hill,AU,7.05,8.7
40.0,-0.02,109.34,2019-03-30 02:30:00,1553913000.0,74.0,1043.4,303.15,Pontianak,ID,14.99,1.5
40.0,41.07,28.25,2019-03-30 03:22:36,1553916156.0,100.0,1017.84,280.93,Silivri,TR,3.69,7.7
0.0,57.91,38.06,2019-03-30 03:24:31,1553916271.0,86.0,1047.47,272.64,Novyy Nekouz,RU,13.87,4.85
68.0,61.99,-49.67,2019-03-30 03:24:32,1553916272.0,95.0,1049.61,273.49,Paamiut,GL,0.89,9.7
75.0,28.23,-82.18,2019-03-30 03:24:14,1553916254.0,64.0,1067.97,294.82,Zephyrhills,US,2.68,4.7
75.0,63.73,8.83,2019-03-30 03:21:58,1553916118.0,93.0,1020.27,278.71,Sistranda,NO,7.61,7.7
32.0,60.62,16.77,2019-03-30 03:23:07,1553916187.0,81.0,1040.27,278.15,Sandviken,SE,13.87,1.79
92.0,63.23,52.89,2019-03-30 03:24:38,1553916278.0,89.0,1014.69,271.49,Borovoy,RU,4.81,6.35
0.0,-38.55,-58.74,2019-03-30 03:11:43,1553915503.0,89.0,1067.34,291.48,Necochea,AR,4.92,1.34
5.0,50.2,-66.38,2019-03-30 02:00:00,1553911200.0,37.0,1070.13,267.15,Sept-Iles,CA,3.36,3.6
0.0,38.09,27.73,2019-03-30 02:50:00,1553914200.0,52.0,1007.58,278.15,Tire,TR,15.77,15.4
20.0,50.93,119.29,2019-03-30 03:24:44,1553916284.0,28.0,1049.07,271.64,Kadaya,RU,4.0,2.65
68.0,26.88,-111.98,2019-03-30 03:21:08,1553916068.0,45.0,1067.88,291.99,Mulege,MX,2.01,2.4
0.0,36.72,15.09,2019-03-30 03:24:45,1553916285.0,76.0,1058.07,276.48,Pachino,IT,3.0,0.89
64.0,59.24,163.07,2019-03-30 03:24:51,1553916291.0,97.0,1021.89,268.24,Ossora,RU,2.46,6.75
0.0,18.74,7.39,2019-03-30 03:24:53,1553916293.0,35.0,1048.71,296.49,Arlit,NE,11.41,4.55
5.0,17.54,44.22,2019-03-30 03:00:00,1553914800.0,64.0,1057.08,293.15,Najran,SA,4.7,1.2
0.0,21.53,84.72,2019-03-30 03:24:56,1553916296.0,45.0,1055.28,303.09,Deogarh,IN,2.35,1.85
8.0,44.3,86.03,2019-03-30 03:24:57,1553916297.0,55.0,1068.42,284.74,Shihezi,CN,3.69,2.85
0.0,41.89,12.48,2019-03-30 03:21:16,1553916076.0,75.0,1068.51,283.15,Rome,IT,4.81,1.0
8.0,-20.46,-66.82,2019-03-30 03:25:00,1553916300.0,91.0,1049.43,276.59,Uyuni,BO,7.83,1.3
0.0,43.26,27.82,2019-03-30 02:30:00,1553913000.0,93.0,1025.87,273.15,Aksakovo,BG,5.82,2.1
1.0,55.76,-120.23,2019-03-30 03:00:00,1553914800.0,42.0,1015.07,286.15,Dawson Creek,CA,10.85,1.0
40.0,-19.55,169.27,2019-03-30 03:00:00,1553914800.0,59.0,1038.0,305.15,Isangel,VU,2.01,6.2
48.0,-10.65,-68.5,2019-03-30 03:25:08,1553916308.0,84.0,1033.68,297.59,Xapuri,BR,3.69,1.6
90.0,21.39,-158.15,2019-03-30 03:22:27,1553916147.0,73.0,1064.1,299.15,Nanakuli,US,6.71,4.1
0.0,42.76,-8.49,2019-03-30 03:24:28,1553916268.0,65.0,1068.96,284.26,Xian,ES,10.4,2.6
0.0,48.95,4.24,2019-03-30 03:22:05,1553916125.0,80.0,1017.07,279.15,Saint-Pierre,FR,1.99,2.6
80.0,67.67,53.09,2019-03-30 03:25:15,1553916315.0,97.0,1047.47,272.04,Naryan-Mar,RU,2.24,4.2
75.0,37.73,-25.67,2019-03-30 03:25:10,1553916310.0,67.0,1061.87,287.15,Ponta Delgada,PT,2.24,2.1
20.0,9.97,123.41,2019-03-30 03:25:19,1553916319.0,80.0,1037.07,301.54,Alcantara,PH,11.41,3.0
20.0,17.89,-77.59,2019-03-30 03:25:21,1553916321.0,88.0,1011.45,292.19,Bull Savanna,JM,3.13,1.2
68.0,40.29,97.04,2019-03-30 03:25:22,1553916322.0,45.0,1059.15,276.54,Yumen,CN,4.59,4.3
32.0,-32.7,-57.63,2019-03-30 03:25:24,1553916324.0,86.0,1065.36,293.19,Young,UY,3.91,3.75
20.0,17.17,-99.53,2019-03-30 02:42:00,1553913720.0,78.0,,300.15,Tierra Colorada,MX,,3.1
92.0,0.78,11.55,2019-03-30 03:25:27,1553916327.0,94.0,,296.89,Mitzic,GA,,1.05
0.0,67.46,153.71,2019-03-30 03:25:28,1553916328.0,58.0,,266.14,Srednekolymsk,RU,,1.5
20.0,33.08,-16.33,2019-03-30 03:00:00,1553914800.0,87.0,,289.15,Camacha,PT,,3.1
44.0,1.96,-72.65,2019-03-30 03:25:31,1553916331.0,90.0,,297.04,Calamar,CO,,0.85
90.0,39.46,-98.11,2019-03-30 02:55:00,1553914500.0,86.0,,276.15,Beloit,US,,7.7
92.0,20.52,-13.05,2019-03-30 03:25:34,1553916334.0,87.0,,292.84,Atar,MR,,2.25
0.0,13.76,7.99,2019-03-30 03:25:36,1553916336.0,24.0,,295.74,Tessaoua,NE,,4.65
12.0,-9.65,120.26,2019-03-30 03:25:37,1553916337.0,82.0,,302.49,Waingapu,ID,,1.6
90.0,58.66,6.71,2019-03-30 03:24:19,1553916259.0,93.0,,280.15,Tonstad,NO,,2.6
48.0,52.23,141.51,2019-03-30 03:25:40,1553916340.0,79.0,,268.39,Lazarev,RU,,3.9
0.0,62.65,135.58,2019-03-30 03:25:42,1553916342.0,59.0,,266.84,Khandyga,RU,,1.6
68.0,-2.86,-67.77,2019-03-30 03:25:43,1553916343.0,95.0,,298.09,Tonantins,BR,,1.15
20.0,53.37,13.69,2019-03-30 03:20:42,1553916042.0,86.0,,278.15,Wittstock,DE,,0.89
92.0,61.99,5.14,2019-03-30 03:25:02,1553916302.0,86.0,,278.15,Raudeberg,NO,,5.7
75.0,56.07,37.56,2019-03-30 03:05:36,1553915136.0,93.0,,277.59,Marfino,RU,,5.0
40.0,29.97,78.17,2019-03-30 02:30:00,1553913000.0,64.0,,296.15,Haridwar,IN,,1.0
36.0,51.97,59.9,2019-03-30 03:25:51,1553916351.0,81.0,,266.99,Krasnoyarskiy,RU,,3.95
36.0,46.68,113.28,2019-03-30 03:25:52,1553916352.0,39.0,,271.94,Baruun-Urt,MN,,4.9
36.0,46.98,128.05,2019-03-30 03:25:54,1553916354.0,39.0,,277.04,Tieli,CN,,3.15
92.0,-28.55,16.43,2019-03-30 03:25:55,1553916355.0,93.0,,288.89,Oranjemund,ZA,,6.7
24.0,46.45,135.83,2019-03-30 03:25:57,1553916357.0,53.0,,274.69,Vostok,RU,,1.65
1.0,32.83,-109.71,2019-03-30 03:21:06,1553916066.0,22.0,,291.15,Safford,US,,6.2
92.0,8.08,-73.22,2019-03-30 03:26:00,1553916360.0,81.0,,292.34,Abrego,CO,,0.4
0.0,6.62,73.07,2019-03-30 03:26:01,1553916361.0,100.0,,302.54,Kulhudhuffushi,MV,,1.2
76.0,48.68,71.64,2019-03-30 03:26:03,1553916363.0,100.0,,276.04,Atasu,KZ,,3.4
75.0,37.46,-122.43,2019-03-30 03:24:16,1553916256.0,81.0,,287.15,Half Moon Bay,US,,6.2
0.0,52.35,-110.26,2019-03-30 03:26:06,1553916366.0,58.0,,272.94,Provost,CA,,2.15
36.0,10.93,108.1,2019-03-30 03:22:22,1553916142.0,84.0,,302.19,Phan Thiet,VN,,2.2
0.0,19.74,96.21,2019-03-30 03:26:08,1553916368.0,45.0,,303.74,Pyinmana,MM,,1.5
8.0,49.13,-66.49,2019-03-30 03:26:10,1553916370.0,97.0,,268.99,Sainte-Anne-des-Monts,CA,,7.05
0.0,-44.53,171.19,2019-03-30 03:22:10,1553916130.0,80.0,,292.04,Saint Andrews,NZ,,1.79
56.0,-4.94,122.53,2019-03-30 03:26:13,1553916373.0,92.0,,302.49,Katobu,ID,,0.9
20.0,-40.86,172.81,2019-03-30 03:24:09,1553916249.0,77.0,,297.04,Takaka,NZ,,1.34
90.0,45.51,-92.98,2019-03-30 03:23:09,1553916189.0,64.0,,276.48,North Branch,US,,1.5
92.0,-38.68,177.91,2019-03-30 03:20:12,1553916012.0,70.0,,294.82,Manutuke,NZ,,2.68
0.0,54.23,-125.76,2019-03-30 03:26:19,1553916379.0,60.0,,276.94,Burns Lake,CA,,1.1
0.0,-20.62,27.45,2019-03-30 03:26:20,1553916380.0,79.0,,291.84,Masunga,BW,,5.1
12.0,-22.82,47.83,2019-03-30 03:26:23,1553916383.0,100.0,,296.49,Farafangana,MG,,2.1
24.0,-8.88,147.74,2019-03-30 03:23:04,1553916184.0,88.0,,295.49,Kokoda,PG,,1.05
48.0,-6.32,155.48,2019-03-30 03:26:29,1553916389.0,73.0,,302.79,Panguna,PG,,1.65
0.0,18.61,79.38,2019-03-30 03:26:32,1553916392.0,42.0,,302.84,Peddapalli,IN,,2.15
88.0,-39.64,176.84,2019-03-30 03:25:54,1553916354.0,96.0,,292.24,Hastings,NZ,,3.5
88.0,40.16,38.09,2019-03-30 03:26:35,1553916395.0,83.0,,266.99,Susehri,TR,,1.15
1.0,64.84,-147.72,2019-03-30 03:25:18,1553916318.0,64.0,,279.15,Fairbanks,US,,2.6
0.0,46.13,30.39,2019-03-30 02:30:00,1553913000.0,100.0,,273.15,Shabo,UA,,4.85
32.0,30.78,78.62,2019-03-30 03:26:40,1553916400.0,73.0,,285.89,Lata,IN,,0.9
0.0,14.2,24.66,2019-03-30 03:26:41,1553916401.0,36.0,,283.49,Kutum,SD,,1.65
44.0,13.78,124.39,2019-03-30 03:26:43,1553916403.0,92.0,,300.39,Gigmoto,PH,,3.0
8.0,-16.7,-151.02,2019-03-30 03:26:44,1553916404.0,95.0,,303.09,Fare,PF,,4.65
32.0,59.64,33.53,2019-03-30 03:26:22,1553916382.0,92.0,,274.26,Tikhvin,RU,,0.89
75.0,-34.04,23.05,2019-03-30 03:00:00,1553914800.0,93.0,,291.15,Knysna,ZA,,1.0
44.0,-14.3,-67.34,2019-03-30 03:26:49,1553916409.0,93.0,,296.09,Reyes,BO,,0.9
0.0,13.7,-89.56,2019-03-30 02:50:00,1553914200.0,83.0,,299.15,San Julian,SV,,1.0
75.0,36.95,36.2,2019-03-30 03:25:27,1553916327.0,100.0,,285.37,Erzin,TR,,5.1
88.0,57.84,108.35,2019-03-30 03:26:53,1553916413.0,82.0,,271.14,Alekseyevsk,RU,,1.4
0.0,15.35,75.17,2019-03-30 03:26:55,1553916415.0,78.0,,297.64,Hubli,IN,,2.05
32.0,-9.11,124.89,2019-03-30 03:26:56,1553916416.0,100.0,,301.09,Atambua,ID,,1.75
